{
"type": "FeatureCollection",
"name": "van_locations",
"crs": { "type": "name", "properties": { "name": "urn:ogc:def:crs:OGC:1.3:CRS84" } },
"features": [
{ "type": "Feature", "properties": { "OBJECTID": 1, "GlobalID": "ed6aa561-1c2c-4bcd-8c8b-45b2d2e9c5f1", "CreationDa": "2020-02-26T00:00:00", "Creator": "cat656_Harvard_CGA", "EditDate": "2020-02-26T00:00:00", "Editor": "cat656_Harvard_CGA", "Point_Numb": 180, "Point_Name": "Av. 5 de abril con av. Lomas de Carabayllo", "District": null, "Zona_ID": 1088.0, "Punto_ID": 1180.0 }, "geometry": { "type": "Point", "coordinates": [ -77.057226658804666, -11.829843064177759 ] } },
{ "type": "Feature", "properties": { "OBJECTID": 2, "GlobalID": "5163aa21-0e6d-4bc6-83a7-112970f7a1fe", "CreationDa": "2020-02-26T00:00:00", "Creator": "cat656_Harvard_CGA", "EditDate": "2020-02-26T00:00:00", "Editor": "cat656_Harvard_CGA", "Point_Numb": 183, "Point_Name": "Loza Deportiva Nueva Jerusalen 1", "District": null, "Zona_ID": 1088.0, "Punto_ID": 1183.0 }, "geometry": { "type": "Point", "coordinates": [ -77.07226324752844, -11.829660438941678 ] } },
{ "type": "Feature", "properties": { "OBJECTID": 3, "GlobalID": "4139c32e-deb4-48ad-a6ef-6ef9bb843b4b", "CreationDa": "2020-02-26T00:00:00", "Creator": "cat656_Harvard_CGA", "EditDate": "2020-02-26T00:00:00", "Editor": "cat656_Harvard_CGA", "Point_Numb": 84, "Point_Name": "Local San Benito", "District": "Carabayllo", "Zona_ID": 1087.0, "Punto_ID": 1084.0 }, "geometry": { "type": "Point", "coordinates": [ -77.045756929731141, -11.816479060730209 ] } },
{ "type": "Feature", "properties": { "OBJECTID": 4, "GlobalID": "1643a35e-bf55-44c4-872c-f58e2b48e299", "CreationDa": "2020-02-26T00:00:00", "Creator": "cat656_Harvard_CGA", "EditDate": "2020-02-26T00:00:00", "Editor": "cat656_Harvard_CGA", "Point_Numb": 124, "Point_Name": "Plaza de Armas San Pedro de Carabayllo", "District": "Carabayllo", "Zona_ID": 1086.0, "Punto_ID": 1124.0 }, "geometry": { "type": "Point", "coordinates": [ -77.03711750645364, -11.853665314889584 ] } },
{ "type": "Feature", "properties": { "OBJECTID": 5, "GlobalID": "d975c9c5-3350-45a1-ac6c-c24ad3eba933", "CreationDa": "2020-02-26T00:00:00", "Creator": "cat656_Harvard_CGA", "EditDate": "2020-02-26T00:00:00", "Editor": "cat656_Harvard_CGA", "Point_Numb": 184, "Point_Name": "Estadio Maracana", "District": null, "Zona_ID": 1088.0, "Punto_ID": 1184.0 }, "geometry": { "type": "Point", "coordinates": [ -77.070477565626902, -11.82672180083965 ] } },
{ "type": "Feature", "properties": { "OBJECTID": 6, "GlobalID": "8177e0ea-b385-4eaf-9c91-8ff0d379e0ec", "CreationDa": "2019-09-24T00:00:00", "Creator": "cat656_Harvard_CGA", "EditDate": "2019-10-22T00:00:00", "Editor": "cat656_Harvard_CGA", "Point_Numb": 1, "Point_Name": "Frente a Lois y Tomas", "District": "Carabayllo", "Zona_ID": 1008.0, "Punto_ID": 1001.0 }, "geometry": { "type": "Point", "coordinates": [ -77.015472565546801, -11.885999204342616 ] } },
{ "type": "Feature", "properties": { "OBJECTID": 7, "GlobalID": "4290db2c-17b7-4d21-bb3b-0d841cd5c460", "CreationDa": "2019-09-24T00:00:00", "Creator": "cat656_Harvard_CGA", "EditDate": "2019-10-22T00:00:00", "Editor": "cat656_Harvard_CGA", "Point_Numb": 2, "Point_Name": "Loza Jorge Lingan", "District": "Carabayllo", "Zona_ID": 1007.0, "Punto_ID": 1002.0 }, "geometry": { "type": "Point", "coordinates": [ -77.020012652789376, -11.883354123465702 ] } },
{ "type": "Feature", "properties": { "OBJECTID": 8, "GlobalID": "7fd3d463-a8ac-4ade-bf62-816b4e3d5ecc", "CreationDa": "2019-09-24T00:00:00", "Creator": "cat656_Harvard_CGA", "EditDate": "2019-10-22T00:00:00", "Editor": "cat656_Harvard_CGA", "Point_Numb": 3, "Point_Name": "Loza Daniel Alcidez Carrion", "District": "Carabayllo", "Zona_ID": 1005.0, "Punto_ID": 1003.0 }, "geometry": { "type": "Point", "coordinates": [ -77.01894400165601, -11.880920527661971 ] } },
{ "type": "Feature", "properties": { "OBJECTID": 9, "GlobalID": "bcab392b-ad68-4f34-8944-bb96a39bfdbb", "CreationDa": "2019-09-24T00:00:00", "Creator": "cat656_Harvard_CGA", "EditDate": "2019-10-22T00:00:00", "Editor": "cat656_Harvard_CGA", "Point_Numb": 4, "Point_Name": "Loza Ricardo Palma", "District": "Carabayllo", "Zona_ID": 1003.0, "Punto_ID": 1004.0 }, "geometry": { "type": "Point", "coordinates": [ -77.017983627158813, -11.879503634359779 ] } },
{ "type": "Feature", "properties": { "OBJECTID": 10, "GlobalID": "5963f13f-9c54-458a-9585-fade83531d89", "CreationDa": "2019-09-24T00:00:00", "Creator": "cat656_Harvard_CGA", "EditDate": "2019-10-22T00:00:00", "Editor": "cat656_Harvard_CGA", "Point_Numb": 98, "Point_Name": "Poder Judicial", "District": "Carabayllo", "Zona_ID": 1007.0, "Punto_ID": 1098.0 }, "geometry": { "type": "Point", "coordinates": [ -77.021114353840346, -11.880847892635243 ] } },
{ "type": "Feature", "properties": { "OBJECTID": 11, "GlobalID": "2b60a7e2-4223-420c-9de7-db8031b2b16b", "CreationDa": "2019-10-21T00:00:00", "Creator": "cat656_Harvard_CGA", "EditDate": "2019-10-22T00:00:00", "Editor": "cat656_Harvard_CGA", "Point_Numb": 6, "Point_Name": "Plaza de Armas La Flor", "District": "Carabayllo", "Zona_ID": 1012.0, "Punto_ID": 1006.0 }, "geometry": { "type": "Point", "coordinates": [ -77.027835597305128, -11.896017875763059 ] } },
{ "type": "Feature", "properties": { "OBJECTID": 12, "GlobalID": "d18bb751-f2a0-4f9b-ae6e-51aa0fd8c996", "CreationDa": "2019-10-21T00:00:00", "Creator": "cat656_Harvard_CGA", "EditDate": "2019-10-22T00:00:00", "Editor": "cat656_Harvard_CGA", "Point_Numb": 5, "Point_Name": "Loza Deportiva La Flor", "District": "Carabayllo", "Zona_ID": 1012.0, "Punto_ID": 1005.0 }, "geometry": { "type": "Point", "coordinates": [ -77.026516821959035, -11.895666746503064 ] } },
{ "type": "Feature", "properties": { "OBJECTID": 13, "GlobalID": "a7ed01d1-b48c-4ccb-9b1a-258a0ce3bec9", "CreationDa": "2019-10-21T00:00:00", "Creator": "cat656_Harvard_CGA", "EditDate": "2019-10-22T00:00:00", "Editor": "cat656_Harvard_CGA", "Point_Numb": 78, "Point_Name": "Estadio Ricardo Palma", "District": "Carabayllo", "Zona_ID": 1013.0, "Punto_ID": 1078.0 }, "geometry": { "type": "Point", "coordinates": [ -77.03414497129701, -11.90069182474604 ] } },
{ "type": "Feature", "properties": { "OBJECTID": 14, "GlobalID": "1700d514-f1f6-4b10-835b-157a052045da", "CreationDa": "2019-10-21T00:00:00", "Creator": "cat656_Harvard_CGA", "EditDate": "2019-10-22T00:00:00", "Editor": "cat656_Harvard_CGA", "Point_Numb": 18, "Point_Name": "Parque Santa Rosa Lucyana", "District": "Carabayllo", "Zona_ID": 1011.0, "Punto_ID": 1018.0 }, "geometry": { "type": "Point", "coordinates": [ -77.030138775285693, -11.893788557576872 ] } },
{ "type": "Feature", "properties": { "OBJECTID": 15, "GlobalID": "0a27b6e9-3612-4b5c-933c-a5f0488e6a37", "CreationDa": "2019-10-21T00:00:00", "Creator": "cat656_Harvard_CGA", "EditDate": "2019-10-22T00:00:00", "Editor": "cat656_Harvard_CGA", "Point_Numb": 7, "Point_Name": "Parque Victor Raúl Haya de la Torre / Parque Los Poetas", "District": "Carabayllo", "Zona_ID": 1011.0, "Punto_ID": 1007.0 }, "geometry": { "type": "Point", "coordinates": [ -77.03409218629092, -11.894240002219385 ] } },
{ "type": "Feature", "properties": { "OBJECTID": 16, "GlobalID": "ac841718-724a-4fb7-95ac-68cdbef65046", "CreationDa": "2019-10-21T00:00:00", "Creator": "cat656_Harvard_CGA", "EditDate": "2019-10-22T00:00:00", "Editor": "cat656_Harvard_CGA", "Point_Numb": 11, "Point_Name": "APUSI Santa Isabel", "District": "Carabayllo", "Zona_ID": 1013.0, "Punto_ID": 1011.0 }, "geometry": { "type": "Point", "coordinates": [ -77.035162682563879, -11.904226879211077 ] } },
{ "type": "Feature", "properties": { "OBJECTID": 17, "GlobalID": "ef2e9c78-61ca-41e4-a2ca-c455dd7d63f1", "CreationDa": "2019-10-21T00:00:00", "Creator": "cat656_Harvard_CGA", "EditDate": "2019-10-22T00:00:00", "Editor": "cat656_Harvard_CGA", "Point_Numb": 12, "Point_Name": "Parque Señor de los Milagros", "District": "Carabayllo", "Zona_ID": 1013.0, "Punto_ID": 1012.0 }, "geometry": { "type": "Point", "coordinates": [ -77.035001224764585, -11.898677875224486 ] } },
{ "type": "Feature", "properties": { "OBJECTID": 18, "GlobalID": "bc7ec925-d1a0-4f2d-bc7d-256f526bdb4b", "CreationDa": "2019-10-21T00:00:00", "Creator": "cat656_Harvard_CGA", "EditDate": "2019-10-22T00:00:00", "Editor": "cat656_Harvard_CGA", "Point_Numb": 13, "Point_Name": "Parque y Loza Loloy", "District": "Carabayllo", "Zona_ID": 1011.0, "Punto_ID": 1013.0 }, "geometry": { "type": "Point", "coordinates": [ -77.031664556609243, -11.896554583486251 ] } },
{ "type": "Feature", "properties": { "OBJECTID": 19, "GlobalID": "7b6f2c3e-cb9c-4356-b32a-f278d8ff9f09", "CreationDa": "2019-10-21T00:00:00", "Creator": "cat656_Harvard_CGA", "EditDate": "2019-10-22T00:00:00", "Editor": "cat656_Harvard_CGA", "Point_Numb": 15, "Point_Name": "Parque 14 Las Incas", "District": "Carabayllo", "Zona_ID": 1013.0, "Punto_ID": 1015.0 }, "geometry": { "type": "Point", "coordinates": [ -77.03147486835384, -11.90134475237234 ] } },
{ "type": "Feature", "properties": { "OBJECTID": 20, "GlobalID": "fcd735e4-d5c1-4787-a558-7d92d4d781d9", "CreationDa": "2019-10-21T00:00:00", "Creator": "cat656_Harvard_CGA", "EditDate": "2019-10-22T00:00:00", "Editor": "cat656_Harvard_CGA", "Point_Numb": 16, "Point_Name": "Local Comunal El Polvorín", "District": "Carabayllo", "Zona_ID": 1012.0, "Punto_ID": 1016.0 }, "geometry": { "type": "Point", "coordinates": [ -77.029010728444078, -11.899629503623652 ] } },
{ "type": "Feature", "properties": { "OBJECTID": 21, "GlobalID": "bdd7fe1d-086b-4f4d-ad88-689db62013d8", "CreationDa": "2019-10-21T00:00:00", "Creator": "cat656_Harvard_CGA", "EditDate": "2019-10-22T00:00:00", "Editor": "cat656_Harvard_CGA", "Point_Numb": 10, "Point_Name": "Mercado San Pedro", "District": "Carabayllo", "Zona_ID": 1013.0, "Punto_ID": 1010.0 }, "geometry": { "type": "Point", "coordinates": [ -77.037630233376788, -11.899617875189858 ] } },
{ "type": "Feature", "properties": { "OBJECTID": 22, "GlobalID": "5520522f-70f1-4c6e-b0dc-747d1539dde8", "CreationDa": "2019-10-21T00:00:00", "Creator": "cat656_Harvard_CGA", "EditDate": "2019-10-22T00:00:00", "Editor": "cat656_Harvard_CGA", "Point_Numb": 14, "Point_Name": "Loza Los Angeles de Naranjal", "District": "Carabayllo", "Zona_ID": 1014.0, "Punto_ID": 1014.0 }, "geometry": { "type": "Point", "coordinates": [ -77.029030000001853, -11.904746879508542 ] } },
{ "type": "Feature", "properties": { "OBJECTID": 23, "GlobalID": "9e6ab3a8-05a7-4e81-8a68-52c85745c12b", "CreationDa": "2019-10-21T00:00:00", "Creator": "cat656_Harvard_CGA", "EditDate": "2019-10-22T00:00:00", "Editor": "cat656_Harvard_CGA", "Point_Numb": 17, "Point_Name": "Parque Humareda", "District": "Carabayllo", "Zona_ID": 1011.0, "Punto_ID": 1017.0 }, "geometry": { "type": "Point", "coordinates": [ -77.032766821802198, -11.891663125015972 ] } },
{ "type": "Feature", "properties": { "OBJECTID": 24, "GlobalID": "dd8b3434-ce5d-4364-ae98-b220f9a2a330", "CreationDa": "2019-10-21T00:00:00", "Creator": "cat656_Harvard_CGA", "EditDate": "2019-10-22T00:00:00", "Editor": "cat656_Harvard_CGA", "Point_Numb": 79, "Point_Name": "Comisaría Santa Isabel", "District": "Carabayllo", "Zona_ID": 1013.0, "Punto_ID": 1079.0 }, "geometry": { "type": "Point", "coordinates": [ -77.032363206948403, -11.90161046409621 ] } },
{ "type": "Feature", "properties": { "OBJECTID": 25, "GlobalID": "1e4f3325-2bf5-4680-a1f5-81f92a792daf", "CreationDa": "2019-10-21T00:00:00", "Creator": "cat656_Harvard_CGA", "EditDate": "2019-10-22T00:00:00", "Editor": "cat656_Harvard_CGA", "Point_Numb": 123, "Point_Name": "UBAP Carabayllo", "District": "Carabayllo", "Zona_ID": 2008.0, "Punto_ID": 1123.0 }, "geometry": { "type": "Point", "coordinates": [ -77.038402682113173, -11.896592626621098 ] } },
{ "type": "Feature", "properties": { "OBJECTID": 26, "GlobalID": "e870c4d3-ae0a-42f7-b6d3-601d303d8276", "CreationDa": "2019-10-21T00:00:00", "Creator": "cat656_Harvard_CGA", "EditDate": "2019-10-22T00:00:00", "Editor": "cat656_Harvard_CGA", "Point_Numb": 24, "Point_Name": "San Antonio (CEM)", "District": "Carabayllo", "Zona_ID": 1015.0, "Punto_ID": 1024.0 }, "geometry": { "type": "Point", "coordinates": [ -77.004949270913912, -11.860877376567936 ] } },
{ "type": "Feature", "properties": { "OBJECTID": 27, "GlobalID": "523c69f5-019b-4d05-96e0-dc3d2fbfa6d9", "CreationDa": "2019-10-21T00:00:00", "Creator": "cat656_Harvard_CGA", "EditDate": "2019-10-22T00:00:00", "Editor": "cat656_Harvard_CGA", "Point_Numb": 23, "Point_Name": "Mercado 3 Regiones", "District": "Carabayllo", "Zona_ID": 1026.0, "Punto_ID": 1023.0 }, "geometry": { "type": "Point", "coordinates": [ -77.029615364698856, -11.885499503416222 ] } },
{ "type": "Feature", "properties": { "OBJECTID": 28, "GlobalID": "547c77a9-7e5e-477f-b31c-76b5e6b48e85", "CreationDa": "2019-10-21T00:00:00", "Creator": "cat656_Harvard_CGA", "EditDate": "2019-10-22T00:00:00", "Editor": "cat656_Harvard_CGA", "Point_Numb": 46, "Point_Name": "Las Palpas", "District": "Carabayllo", "Zona_ID": 1038.0, "Punto_ID": 1046.0 }, "geometry": { "type": "Point", "coordinates": [ -77.041387317576678, -11.884143125637426 ] } },
{ "type": "Feature", "properties": { "OBJECTID": 29, "GlobalID": "1bf3f90d-5c63-4ee8-b690-2294f028b6d2", "CreationDa": "2019-10-21T00:00:00", "Creator": "cat656_Harvard_CGA", "EditDate": "2019-10-22T00:00:00", "Editor": "cat656_Harvard_CGA", "Point_Numb": 107, "Point_Name": "Loza Deportiva Huascar", "District": "Carabayllo", "Zona_ID": 1070.0, "Punto_ID": 1107.0 }, "geometry": { "type": "Point", "coordinates": [ -77.013762682590595, -11.87763212744929 ] } },
{ "type": "Feature", "properties": { "OBJECTID": 30, "GlobalID": "7ce6f3d4-b16f-4a26-ba21-115a3df6a180", "CreationDa": "2019-10-21T00:00:00", "Creator": "cat656_Harvard_CGA", "EditDate": "2019-10-22T00:00:00", "Editor": "cat656_Harvard_CGA", "Point_Numb": 19, "Point_Name": "Loza Deportiva los Sauces", "District": "Carabayllo", "Zona_ID": 1023.0, "Punto_ID": 1019.0 }, "geometry": { "type": "Point", "coordinates": [ -77.021329271280479, -11.872934751903417 ] } },
{ "type": "Feature", "properties": { "OBJECTID": 31, "GlobalID": "3c92b684-f59d-4b0c-be0d-8be4160d73f5", "CreationDa": "2019-10-21T00:00:00", "Creator": "cat656_Harvard_CGA", "EditDate": "2019-10-22T00:00:00", "Editor": "cat656_Harvard_CGA", "Point_Numb": 30, "Point_Name": "IE 2051", "District": "Carabayllo", "Zona_ID": 1021.0, "Punto_ID": 1030.0 }, "geometry": { "type": "Point", "coordinates": [ -77.011586589273307, -11.869627377352788 ] } },
{ "type": "Feature", "properties": { "OBJECTID": 32, "GlobalID": "c16c96cf-d005-4091-8783-561b6425fb55", "CreationDa": "2019-10-21T00:00:00", "Creator": "cat656_Harvard_CGA", "EditDate": "2019-10-22T00:00:00", "Editor": "cat656_Harvard_CGA", "Point_Numb": 108, "Point_Name": "Loza Deportiva Casma", "District": "Carabayllo", "Zona_ID": 1001.0, "Punto_ID": 1108.0 }, "geometry": { "type": "Point", "coordinates": [ -77.015983582077652, -11.878402955410488 ] } },
{ "type": "Feature", "properties": { "OBJECTID": 33, "GlobalID": "bf972516-1891-4065-969f-ac7b2c73ac57", "CreationDa": "2019-10-21T00:00:00", "Creator": "cat656_Harvard_CGA", "EditDate": "2019-10-22T00:00:00", "Editor": "cat656_Harvard_CGA", "Point_Numb": 101, "Point_Name": "CS El Progreso", "District": "Carabayllo", "Zona_ID": 1022.0, "Punto_ID": 1101.0 }, "geometry": { "type": "Point", "coordinates": [ -77.016937318024887, -11.87538425320423 ] } },
{ "type": "Feature", "properties": { "OBJECTID": 34, "GlobalID": "e4e8cc5e-0092-49a7-aa6b-6408b6b94fa4", "CreationDa": "2019-10-21T00:00:00", "Creator": "cat656_Harvard_CGA", "EditDate": "2019-10-22T00:00:00", "Editor": "cat656_Harvard_CGA", "Point_Numb": 31, "Point_Name": "Parque Santa Rosa El Progreso", "District": "Carabayllo", "Zona_ID": 1022.0, "Punto_ID": 1031.0 }, "geometry": { "type": "Point", "coordinates": [ -77.014523411007488, -11.870227876664245 ] } },
{ "type": "Feature", "properties": { "OBJECTID": 35, "GlobalID": "f55d36f0-7099-469f-b2a1-f5e0d1d7c114", "CreationDa": "2019-10-21T00:00:00", "Creator": "cat656_Harvard_CGA", "EditDate": "2019-10-22T00:00:00", "Editor": "cat656_Harvard_CGA", "Point_Numb": 92, "Point_Name": "Plaza de Armas 2do Sector El Progreso", "District": "Carabayllo", "Zona_ID": 1024.0, "Punto_ID": 1092.0 }, "geometry": { "type": "Point", "coordinates": [ -77.012919271438335, -11.87466425280436 ] } },
{ "type": "Feature", "properties": { "OBJECTID": 36, "GlobalID": "2cb85fab-3119-4a07-8a09-38b8d22a4b38", "CreationDa": "2019-10-21T00:00:00", "Creator": "cat656_Harvard_CGA", "EditDate": "2019-10-22T00:00:00", "Editor": "cat656_Harvard_CGA", "Point_Numb": 81, "Point_Name": "Parque Antonio Raymondi", "District": "Carabayllo", "Zona_ID": 1022.0, "Punto_ID": 1081.0 }, "geometry": { "type": "Point", "coordinates": [ -77.017554128248435, -11.874005424869152 ] } },
{ "type": "Feature", "properties": { "OBJECTID": 37, "GlobalID": "700ad135-698e-4c6f-a163-ae4a1edbb872", "CreationDa": "2019-10-21T00:00:00", "Creator": "cat656_Harvard_CGA", "EditDate": "2019-10-22T00:00:00", "Editor": "cat656_Harvard_CGA", "Point_Numb": 40, "Point_Name": "Loza Estrella Solar", "District": "Carabayllo", "Zona_ID": 1026.0, "Punto_ID": 1040.0 }, "geometry": { "type": "Point", "coordinates": [ -77.031223411041196, -11.889836878321979 ] } },
{ "type": "Feature", "properties": { "OBJECTID": 38, "GlobalID": "5a451859-acf0-43e5-998f-fa53113f5031", "CreationDa": "2019-10-21T00:00:00", "Creator": "cat656_Harvard_CGA", "EditDate": "2019-10-22T00:00:00", "Editor": "cat656_Harvard_CGA", "Point_Numb": 41, "Point_Name": "Parque Santo Domingo Etapa 1 y 2", "District": "Carabayllo", "Zona_ID": 1030.0, "Punto_ID": 1041.0 }, "geometry": { "type": "Point", "coordinates": [ -77.036414635829246, -11.884625749811839 ] } },
{ "type": "Feature", "properties": { "OBJECTID": 39, "GlobalID": "5287ea41-86f2-40fb-bdcc-f4677bcdaf37", "CreationDa": "2019-10-21T00:00:00", "Creator": "cat656_Harvard_CGA", "EditDate": "2019-10-22T00:00:00", "Editor": "cat656_Harvard_CGA", "Point_Numb": 77, "Point_Name": "Mercado La Cumbre / La Alameda", "District": "Carabayllo", "Zona_ID": 1001.0, "Punto_ID": 1077.0 }, "geometry": { "type": "Point", "coordinates": [ -77.017158046666609, -11.876917376726698 ] } },
{ "type": "Feature", "properties": { "OBJECTID": 40, "GlobalID": "8a7f79fb-341f-4ead-8a4d-3681e3472914", "CreationDa": "2019-10-21T00:00:00", "Creator": "cat656_Harvard_CGA", "EditDate": "2019-10-22T00:00:00", "Editor": "cat656_Harvard_CGA", "Point_Numb": 99, "Point_Name": "Parque Rafael Belaunde", "District": "Carabayllo", "Zona_ID": 1022.0, "Punto_ID": 1099.0 }, "geometry": { "type": "Point", "coordinates": [ -77.021808996795031, -11.877762557667522 ] } },
{ "type": "Feature", "properties": { "OBJECTID": 41, "GlobalID": "cae0d3d1-a6ab-478a-9e37-b5979d8ff365", "CreationDa": "2019-10-21T00:00:00", "Creator": "cat656_Harvard_CGA", "EditDate": "2019-10-22T00:00:00", "Editor": "cat656_Harvard_CGA", "Point_Numb": 100, "Point_Name": "Loza José Carlos Mariategui", "District": "Carabayllo", "Zona_ID": 1022.0, "Punto_ID": 1100.0 }, "geometry": { "type": "Point", "coordinates": [ -77.020269409263861, -11.878833465715127 ] } },
{ "type": "Feature", "properties": { "OBJECTID": 42, "GlobalID": "0e7dad9b-7d76-417a-90cf-9cbc2b1b4c09", "CreationDa": "2019-10-21T00:00:00", "Creator": "cat656_Harvard_CGA", "EditDate": "2019-10-22T00:00:00", "Editor": "cat656_Harvard_CGA", "Point_Numb": 83, "Point_Name": "Mercado La Frontera", "District": "Carabayllo", "Zona_ID": 1027.0, "Punto_ID": 1083.0 }, "geometry": { "type": "Point", "coordinates": [ -77.035213906297997, -11.888169789483591 ] } },
{ "type": "Feature", "properties": { "OBJECTID": 43, "GlobalID": "3be4945a-98c0-4fda-b2e9-4e18963be201", "CreationDa": "2019-10-21T00:00:00", "Creator": "cat656_Harvard_CGA", "EditDate": "2019-10-22T00:00:00", "Editor": "cat656_Harvard_CGA", "Point_Numb": 97, "Point_Name": "Comedor El Dorado", "District": "Carabayllo", "Zona_ID": 1025.0, "Punto_ID": 1097.0 }, "geometry": { "type": "Point", "coordinates": [ -77.022040000366971, -11.8802842534174 ] } },
{ "type": "Feature", "properties": { "OBJECTID": 44, "GlobalID": "efbc6a11-8578-4aad-b127-a244992278ba", "CreationDa": "2019-10-21T00:00:00", "Creator": "cat656_Harvard_CGA", "EditDate": "2019-10-22T00:00:00", "Editor": "cat656_Harvard_CGA", "Point_Numb": 80, "Point_Name": "Loza de la Asociación Las Lomas de Carabayllo", "District": "Carabayllo", "Zona_ID": 1025.0, "Punto_ID": 1080.0 }, "geometry": { "type": "Point", "coordinates": [ -77.023893178085729, -11.87575737703345 ] } },
{ "type": "Feature", "properties": { "OBJECTID": 45, "GlobalID": "ffee7320-79e7-4c76-b1ca-3bac79ea5d04", "CreationDa": "2019-10-21T00:00:00", "Creator": "cat656_Harvard_CGA", "EditDate": "2019-10-22T00:00:00", "Editor": "cat656_Harvard_CGA", "Point_Numb": 82, "Point_Name": "Casa de la Salud Santa Catalina", "District": "Carabayllo", "Zona_ID": 1033.0, "Punto_ID": 1082.0 }, "geometry": { "type": "Point", "coordinates": [ -77.017586093001185, -11.862576377801535 ] } },
{ "type": "Feature", "properties": { "OBJECTID": 46, "GlobalID": "064dedb2-6d1b-43a8-95a9-7d47ebf0eb7c", "CreationDa": "2019-10-21T00:00:00", "Creator": "cat656_Harvard_CGA", "EditDate": "2019-10-22T00:00:00", "Editor": "cat656_Harvard_CGA", "Point_Numb": 87, "Point_Name": "Parque No 1 Vista Alegre", "District": "Carabayllo", "Zona_ID": 1032.0, "Punto_ID": 1087.0 }, "geometry": { "type": "Point", "coordinates": [ -77.020263907082764, -11.867037376779145 ] } },
{ "type": "Feature", "properties": { "OBJECTID": 47, "GlobalID": "a3747c55-67d1-41b1-a694-f5e0782016bf", "CreationDa": "2019-10-21T00:00:00", "Creator": "cat656_Harvard_CGA", "EditDate": "2019-10-22T00:00:00", "Editor": "cat656_Harvard_CGA", "Point_Numb": 90, "Point_Name": "Parque 1 Enace / IE 8174", "District": "Carabayllo", "Zona_ID": 1028.0, "Punto_ID": 1090.0 }, "geometry": { "type": "Point", "coordinates": [ -77.036856821646381, -11.891650500293169 ] } },
{ "type": "Feature", "properties": { "OBJECTID": 48, "GlobalID": "dae29743-6d51-4a98-a748-5525f34c5a22", "CreationDa": "2019-10-21T00:00:00", "Creator": "cat656_Harvard_CGA", "EditDate": "2019-10-22T00:00:00", "Editor": "cat656_Harvard_CGA", "Point_Numb": 89, "Point_Name": "Local Comunal Pueblo Joven El Progreso II", "District": "Carabayllo", "Zona_ID": 1024.0, "Punto_ID": 1089.0 }, "geometry": { "type": "Point", "coordinates": [ -77.015510599317622, -11.873795219460378 ] } },
{ "type": "Feature", "properties": { "OBJECTID": 49, "GlobalID": "73c16330-7d03-4b98-a834-0533752b965c", "CreationDa": "2019-10-21T00:00:00", "Creator": "cat656_Harvard_CGA", "EditDate": "2019-10-22T00:00:00", "Editor": "cat656_Harvard_CGA", "Point_Numb": 96, "Point_Name": "Barcelona", "District": "Carabayllo", "Zona_ID": 1035.0, "Punto_ID": 1096.0 }, "geometry": { "type": "Point", "coordinates": [ -77.015316589267371, -11.853729501407919 ] } },
{ "type": "Feature", "properties": { "OBJECTID": 50, "GlobalID": "b70fc236-0b58-4055-89fe-471b3c42d575", "CreationDa": "2019-10-21T00:00:00", "Creator": "cat656_Harvard_CGA", "EditDate": "2019-10-22T00:00:00", "Editor": "cat656_Harvard_CGA", "Point_Numb": 93, "Point_Name": "Virgen de Carmen La Chaqui", "District": "Carabayllo", "Zona_ID": 1018.0, "Punto_ID": 1093.0 }, "geometry": { "type": "Point", "coordinates": [ -77.01039927158925, -11.864244752047115 ] } },
{ "type": "Feature", "properties": { "OBJECTID": 51, "GlobalID": "0fc5cc20-328e-4637-a20c-bcf31299cec6", "CreationDa": "2019-10-21T00:00:00", "Creator": "cat656_Harvard_CGA", "EditDate": "2019-10-22T00:00:00", "Editor": "cat656_Harvard_CGA", "Point_Numb": 85, "Point_Name": "Corporación Vega San Antonio", "District": "Carabayllo", "Zona_ID": 1016.0, "Punto_ID": 1085.0 }, "geometry": { "type": "Point", "coordinates": [ -77.008548547169539, -11.86251755518151 ] } },
{ "type": "Feature", "properties": { "OBJECTID": 52, "GlobalID": "903c06ba-5b41-44e1-89a6-bcc55545d871", "CreationDa": "2019-10-21T00:00:00", "Creator": "cat656_Harvard_CGA", "EditDate": "2019-10-22T00:00:00", "Editor": "cat656_Harvard_CGA", "Point_Numb": 102, "Point_Name": "Camino Real con Trapiche (Santo Domingo Etapa 8)", "District": "Carabayllo", "Zona_ID": 1040.0, "Punto_ID": 1102.0 }, "geometry": { "type": "Point", "coordinates": [ -77.030267654782875, -11.871411169723348 ] } },
{ "type": "Feature", "properties": { "OBJECTID": 53, "GlobalID": "7393eabe-d9e7-49d4-ad1b-d3976eb93fa2", "CreationDa": "2019-10-21T00:00:00", "Creator": "cat656_Harvard_CGA", "EditDate": "2019-10-22T00:00:00", "Editor": "cat656_Harvard_CGA", "Point_Numb": 105, "Point_Name": "Paradero El Rápido", "District": "Carabayllo", "Zona_ID": 1036.0, "Punto_ID": 1105.0 }, "geometry": { "type": "Point", "coordinates": [ -77.029717403433679, -11.868546222250572 ] } },
{ "type": "Feature", "properties": { "OBJECTID": 54, "GlobalID": "68e91973-f7db-4bdf-b47f-7a7a0bd1b87a", "CreationDa": "2019-10-21T00:00:00", "Creator": "cat656_Harvard_CGA", "EditDate": "2019-10-22T00:00:00", "Editor": "cat656_Harvard_CGA", "Point_Numb": 106, "Point_Name": "Av. Santo Domingo con Manuel Prado", "District": "Carabayllo", "Zona_ID": 1031.0, "Punto_ID": 1106.0 }, "geometry": { "type": "Point", "coordinates": [ -77.024474636009558, -11.867376877100794 ] } },
{ "type": "Feature", "properties": { "OBJECTID": 55, "GlobalID": "08af9f44-3362-4c79-90d2-72811b1cad50", "CreationDa": "2019-10-21T00:00:00", "Creator": "cat656_Harvard_CGA", "EditDate": "2019-10-22T00:00:00", "Editor": "cat656_Harvard_CGA", "Point_Numb": 109, "Point_Name": "Loza Indoamerica", "District": "Carabayllo", "Zona_ID": 1022.0, "Punto_ID": 1109.0 }, "geometry": { "type": "Point", "coordinates": [ -77.021620000242407, -11.874515251166574 ] } },
{ "type": "Feature", "properties": { "OBJECTID": 56, "GlobalID": "62af2dd7-2fc9-4b3d-ba04-c8c1a182f397", "CreationDa": "2019-10-21T00:00:00", "Creator": "cat656_Harvard_CGA", "EditDate": "2019-10-22T00:00:00", "Editor": "cat656_Harvard_CGA", "Point_Numb": 113, "Point_Name": "Parque Zonal Manco Capac", "District": "Carabayllo", "Zona_ID": 1026.0, "Punto_ID": 1113.0 }, "geometry": { "type": "Point", "coordinates": [ -77.025974635684463, -11.887904253625463 ] } },
{ "type": "Feature", "properties": { "OBJECTID": 57, "GlobalID": "2b5046e2-3fdd-489e-8ba6-6135ade8b507", "CreationDa": "2019-10-21T00:00:00", "Creator": "cat656_Harvard_CGA", "EditDate": "2019-10-22T00:00:00", "Editor": "cat656_Harvard_CGA", "Point_Numb": 111, "Point_Name": "Pronoei Indoamerica", "District": "Carabayllo", "Zona_ID": 1022.0, "Punto_ID": 1111.0 }, "geometry": { "type": "Point", "coordinates": [ -77.02134268222936, -11.875636877794577 ] } },
{ "type": "Feature", "properties": { "OBJECTID": 58, "GlobalID": "7d77a0ad-858b-462f-898e-b2979ebe2374", "CreationDa": "2019-10-21T00:00:00", "Creator": "cat656_Harvard_CGA", "EditDate": "2019-10-22T00:00:00", "Editor": "cat656_Harvard_CGA", "Point_Numb": 114, "Point_Name": "Comité 7 Indoamerica", "District": "Carabayllo", "Zona_ID": 1022.0, "Punto_ID": 1114.0 }, "geometry": { "type": "Point", "coordinates": [ -77.0225282185542, -11.875883608748399 ] } },
{ "type": "Feature", "properties": { "OBJECTID": 59, "GlobalID": "82833bae-89d6-4971-8910-d7a8227906a5", "CreationDa": "2019-10-21T00:00:00", "Creator": "cat656_Harvard_CGA", "EditDate": "2019-10-22T00:00:00", "Editor": "cat656_Harvard_CGA", "Point_Numb": 115, "Point_Name": "Jirón Enrique Palacios (Rafael Belaunde)", "District": "Carabayllo", "Zona_ID": 1022.0, "Punto_ID": 1115.0 }, "geometry": { "type": "Point", "coordinates": [ -77.022021281273084, -11.876560805904324 ] } },
{ "type": "Feature", "properties": { "OBJECTID": 60, "GlobalID": "64eb3656-4869-44dd-8b32-460702ff8a06", "CreationDa": "2019-10-21T00:00:00", "Creator": "cat656_Harvard_CGA", "EditDate": "2019-10-22T00:00:00", "Editor": "cat656_Harvard_CGA", "Point_Numb": 116, "Point_Name": "Jiron Claveles y Bastidas", "District": "Carabayllo", "Zona_ID": 1022.0, "Punto_ID": 1116.0 }, "geometry": { "type": "Point", "coordinates": [ -77.021130787620137, -11.877148758604498 ] } },
{ "type": "Feature", "properties": { "OBJECTID": 61, "GlobalID": "96e01291-aa82-43d0-a15e-175a8ac3dbca", "CreationDa": "2019-10-21T00:00:00", "Creator": "cat656_Harvard_CGA", "EditDate": "2019-10-22T00:00:00", "Editor": "cat656_Harvard_CGA", "Point_Numb": 118, "Point_Name": "Casa del Artista", "District": "Carabayllo", "Zona_ID": 1022.0, "Punto_ID": 1118.0 }, "geometry": { "type": "Point", "coordinates": [ -77.0176616179604, -11.875912626545066 ] } },
{ "type": "Feature", "properties": { "OBJECTID": 62, "GlobalID": "8d39accc-5f7c-4ac9-a308-5d2adaa6fcb6", "CreationDa": "2019-10-21T00:00:00", "Creator": "cat656_Harvard_CGA", "EditDate": "2019-10-22T00:00:00", "Editor": "cat656_Harvard_CGA", "Point_Numb": 125, "Point_Name": "Brisas de Carabayllo", "District": "Carabayllo", "Zona_ID": 1033.0, "Punto_ID": 1125.0 }, "geometry": { "type": "Point", "coordinates": [ -77.01789927086206, -11.86056000218578 ] } },
{ "type": "Feature", "properties": { "OBJECTID": 63, "GlobalID": "21e06582-776c-4a07-950f-04f3c6530997", "CreationDa": "2019-10-21T00:00:00", "Creator": "cat656_Harvard_CGA", "EditDate": "2019-10-22T00:00:00", "Editor": "cat656_Harvard_CGA", "Point_Numb": 140, "Point_Name": "Terminal Transnorcom", "District": "Carabayllo", "Zona_ID": 1036.0, "Punto_ID": 1140.0 }, "geometry": { "type": "Point", "coordinates": [ -77.026169270962129, -11.86496737689626 ] } },
{ "type": "Feature", "properties": { "OBJECTID": 64, "GlobalID": "196de0b2-de88-4d85-8eea-084d3ad5dba4", "CreationDa": "2019-10-21T00:00:00", "Creator": "cat656_Harvard_CGA", "EditDate": "2019-10-22T00:00:00", "Editor": "cat656_Harvard_CGA", "Point_Numb": 126, "Point_Name": "PS Villa Esperanza", "District": "Carabayllo", "Zona_ID": 1046.0, "Punto_ID": 1126.0 }, "geometry": { "type": "Point", "coordinates": [ -77.022028736391619, -11.885959068454913 ] } },
{ "type": "Feature", "properties": { "OBJECTID": 65, "GlobalID": "15a280b8-e77b-410c-a5be-abd7f33faf21", "CreationDa": "2019-10-21T00:00:00", "Creator": "cat656_Harvard_CGA", "EditDate": "2019-10-22T00:00:00", "Editor": "cat656_Harvard_CGA", "Point_Numb": 127, "Point_Name": "Parque La Paz", "District": "Carabayllo", "Zona_ID": 1047.0, "Punto_ID": 1127.0 }, "geometry": { "type": "Point", "coordinates": [ -77.019098150762147, -11.887027340517422 ] } },
{ "type": "Feature", "properties": { "OBJECTID": 66, "GlobalID": "46996608-a050-41b1-a793-b122422a255f", "CreationDa": "2019-10-21T00:00:00", "Creator": "cat656_Harvard_CGA", "EditDate": "2019-10-22T00:00:00", "Editor": "cat656_Harvard_CGA", "Point_Numb": 128, "Point_Name": "Loza Deportiva Villa Esperanza", "District": "Carabayllo", "Zona_ID": 1046.0, "Punto_ID": 1128.0 }, "geometry": { "type": "Point", "coordinates": [ -77.019081911018418, -11.888537029916426 ] } },
{ "type": "Feature", "properties": { "OBJECTID": 67, "GlobalID": "14f962a7-d258-4c34-9c02-b80c00513eca", "CreationDa": "2019-10-21T00:00:00", "Creator": "cat656_Harvard_CGA", "EditDate": "2019-10-22T00:00:00", "Editor": "cat656_Harvard_CGA", "Point_Numb": 129, "Point_Name": "Paradero Salamanca", "District": "Carabayllo", "Zona_ID": 1042.0, "Punto_ID": 1129.0 }, "geometry": { "type": "Point", "coordinates": [ -77.028918542431299, -11.873062127751515 ] } },
{ "type": "Feature", "properties": { "OBJECTID": 68, "GlobalID": "6c2be79f-f6df-4237-96d4-23c89e0d6c2c", "CreationDa": "2019-10-21T00:00:00", "Creator": "cat656_Harvard_CGA", "EditDate": "2019-10-22T00:00:00", "Editor": "cat656_Harvard_CGA", "Point_Numb": 132, "Point_Name": "Casa de la Mujer del Vaso de Leche", "District": "Carabayllo", "Zona_ID": 1044.0, "Punto_ID": 1132.0 }, "geometry": { "type": "Point", "coordinates": [ -77.025451953631347, -11.883457377348835 ] } },
{ "type": "Feature", "properties": { "OBJECTID": 69, "GlobalID": "f6f31af9-5791-49fb-aac0-d95b071d2643", "CreationDa": "2019-10-21T00:00:00", "Creator": "cat656_Harvard_CGA", "EditDate": "2019-10-22T00:00:00", "Editor": "cat656_Harvard_CGA", "Point_Numb": 136, "Point_Name": "Escalera Pasaje El Carmen", "District": "Carabayllo", "Zona_ID": 1045.0, "Punto_ID": 1136.0 }, "geometry": { "type": "Point", "coordinates": [ -77.024131224449491, -11.88342212779842 ] } },
{ "type": "Feature", "properties": { "OBJECTID": 70, "GlobalID": "dbdaa084-588c-43eb-9991-735e2c90e79d", "CreationDa": "2019-10-21T00:00:00", "Creator": "cat656_Harvard_CGA", "EditDate": "2019-10-22T00:00:00", "Editor": "cat656_Harvard_CGA", "Point_Numb": 137, "Point_Name": "Loza Deportiva Los Cedros", "District": "Carabayllo", "Zona_ID": 1045.0, "Punto_ID": 1137.0 }, "geometry": { "type": "Point", "coordinates": [ -77.025084079149451, -11.882691807318887 ] } },
{ "type": "Feature", "properties": { "OBJECTID": 71, "GlobalID": "384ef5aa-beb0-405e-9c6c-988647f9381a", "CreationDa": "2019-10-21T00:00:00", "Creator": "cat656_Harvard_CGA", "EditDate": "2019-10-22T00:00:00", "Editor": "cat656_Harvard_CGA", "Point_Numb": 130, "Point_Name": "Loza Rosa de América", "District": "Carabayllo", "Zona_ID": 1052.0, "Punto_ID": 1130.0 }, "geometry": { "type": "Point", "coordinates": [ -77.020531953583756, -11.895664254471196 ] } },
{ "type": "Feature", "properties": { "OBJECTID": 72, "GlobalID": "ec0dd81c-8ede-4bea-8613-78fef4ac9def", "CreationDa": "2019-10-21T00:00:00", "Creator": "cat656_Harvard_CGA", "EditDate": "2019-10-22T00:00:00", "Editor": "cat656_Harvard_CGA", "Point_Numb": 133, "Point_Name": "Parque Machu Picchu", "District": "Carabayllo", "Zona_ID": 1054.0, "Punto_ID": 1133.0 }, "geometry": { "type": "Point", "coordinates": [ -77.018667818215178, -11.897291505987674 ] } },
{ "type": "Feature", "properties": { "OBJECTID": 73, "GlobalID": "86c388aa-16ca-462c-80eb-cc5e3f090206", "CreationDa": "2019-10-21T00:00:00", "Creator": "cat656_Harvard_CGA", "EditDate": "2019-10-22T00:00:00", "Editor": "cat656_Harvard_CGA", "Point_Numb": 112, "Point_Name": "Plaza de Armas Raúl Porras", "District": "Carabayllo", "Zona_ID": 1050.0, "Punto_ID": 1112.0 }, "geometry": { "type": "Point", "coordinates": [ -77.023501487469019, -11.892348975695079 ] } },
{ "type": "Feature", "properties": { "OBJECTID": 74, "GlobalID": "c7a6ec09-990f-44c4-98f5-b441a255d6f6", "CreationDa": "2019-10-21T00:00:00", "Creator": "cat656_Harvard_CGA", "EditDate": "2019-10-22T00:00:00", "Editor": "cat656_Harvard_CGA", "Point_Numb": 59, "Point_Name": "Palacio Municipal de Carabayllo", "District": "Carabayllo", "Zona_ID": 1050.0, "Punto_ID": 1059.0 }, "geometry": { "type": "Point", "coordinates": [ -77.026803286618303, -11.88987130513712 ] } },
{ "type": "Feature", "properties": { "OBJECTID": 75, "GlobalID": "1b9fd6ea-792a-4630-9ff4-5c7cbf286c37", "CreationDa": "2019-10-21T00:00:00", "Creator": "cat656_Harvard_CGA", "EditDate": "2019-10-22T00:00:00", "Editor": "cat656_Harvard_CGA", "Point_Numb": 63, "Point_Name": "Antigua Hacienda Punchauca", "District": "Carabayllo", "Zona_ID": 1056.0, "Punto_ID": 1063.0 }, "geometry": { "type": "Point", "coordinates": [ -77.001143410889043, -11.833729501180549 ] } },
{ "type": "Feature", "properties": { "OBJECTID": 76, "GlobalID": "793a49ae-477f-414e-a5a2-ad56717d6e14", "CreationDa": "2019-10-21T00:00:00", "Creator": "cat656_Harvard_CGA", "EditDate": "2019-10-22T00:00:00", "Editor": "cat656_Harvard_CGA", "Point_Numb": 121, "Point_Name": "Agencia Municipal Torreblanca", "District": "Carabayllo", "Zona_ID": 1059.0, "Punto_ID": 1121.0 }, "geometry": { "type": "Point", "coordinates": [ -77.001926589103192, -11.851117376877857 ] } },
{ "type": "Feature", "properties": { "OBJECTID": 77, "GlobalID": "107938ad-e18f-4ff1-af24-f55d9f114c90", "CreationDa": "2019-10-21T00:00:00", "Creator": "cat656_Harvard_CGA", "EditDate": "2019-10-22T00:00:00", "Editor": "cat656_Harvard_CGA", "Point_Numb": 119, "Point_Name": "Loza Deportiva Los Angeles (Comité 32)", "District": "Carabayllo", "Zona_ID": 1066.0, "Punto_ID": 1119.0 }, "geometry": { "type": "Point", "coordinates": [ -77.007349271112403, -11.87967525099678 ] } },
{ "type": "Feature", "properties": { "OBJECTID": 78, "GlobalID": "0d8e95f0-7872-4b22-a803-9b9b4e6522c7", "CreationDa": "2019-10-21T00:00:00", "Creator": "cat656_Harvard_CGA", "EditDate": "2019-10-22T00:00:00", "Editor": "cat656_Harvard_CGA", "Point_Numb": 66, "Point_Name": "Loza Las Piedritas", "District": "Carabayllo", "Zona_ID": 1069.0, "Punto_ID": 1066.0 }, "geometry": { "type": "Point", "coordinates": [ -77.009795445614813, -11.877504564734876 ] } },
{ "type": "Feature", "properties": { "OBJECTID": 79, "GlobalID": "c9e43aca-df92-4ae2-80ab-b93b2aa731de", "CreationDa": "2019-10-21T00:00:00", "Creator": "cat656_Harvard_CGA", "EditDate": "2019-10-22T00:00:00", "Editor": "cat656_Harvard_CGA", "Point_Numb": 141, "Point_Name": "Loza Deportiva Jorge Chavez", "District": "Carabayllo", "Zona_ID": 1068.0, "Punto_ID": 1141.0 }, "geometry": { "type": "Point", "coordinates": [ -77.008293408560846, -11.877333954159127 ] } },
{ "type": "Feature", "properties": { "OBJECTID": 80, "GlobalID": "e271f8c8-25de-420c-90ad-834425b043b7", "CreationDa": "2019-10-21T00:00:00", "Creator": "cat656_Harvard_CGA", "EditDate": "2019-10-22T00:00:00", "Editor": "cat656_Harvard_CGA", "Point_Numb": 86, "Point_Name": "Sol Naciente Segunda Etapa", "District": "Carabayllo", "Zona_ID": 1075.0, "Punto_ID": 1086.0 }, "geometry": { "type": "Point", "coordinates": [ -76.999547317529888, -11.883244752139163 ] } },
{ "type": "Feature", "properties": { "OBJECTID": 81, "GlobalID": "b7e432b5-77f8-4ded-96fa-41a0a6178f83", "CreationDa": "2019-10-21T00:00:00", "Creator": "cat656_Harvard_CGA", "EditDate": "2019-10-22T00:00:00", "Editor": "cat656_Harvard_CGA", "Point_Numb": 122, "Point_Name": "IEI Mi Pequeño Mundo (Keyko Sofia)", "District": "Carabayllo", "Zona_ID": 1076.0, "Punto_ID": 1122.0 }, "geometry": { "type": "Point", "coordinates": [ -77.00369731764853, -11.87940737730244 ] } },
{ "type": "Feature", "properties": { "OBJECTID": 82, "GlobalID": "9051ed03-870c-4ca7-8fbb-45a95e8e6846", "CreationDa": "2019-10-21T00:00:00", "Creator": "cat656_Harvard_CGA", "EditDate": "2019-10-22T00:00:00", "Editor": "cat656_Harvard_CGA", "Point_Numb": 70, "Point_Name": "Loza Hiroito", "District": "Carabayllo", "Zona_ID": 1075.0, "Punto_ID": 1070.0 }, "geometry": { "type": "Point", "coordinates": [ -77.00261460608435, -11.880687541165532 ] } },
{ "type": "Feature", "properties": { "OBJECTID": 83, "GlobalID": "f8df8694-b3c1-486a-a01a-6b02aac9dd15", "CreationDa": "2019-10-21T00:00:00", "Creator": "cat656_Harvard_CGA", "EditDate": "2019-10-22T00:00:00", "Editor": "cat656_Harvard_CGA", "Point_Numb": 131, "Point_Name": "Cuna Mas (Keyko Sofía)", "District": "Carabayllo", "Zona_ID": 1076.0, "Punto_ID": 1131.0 }, "geometry": { "type": "Point", "coordinates": [ -77.002970439548179, -11.879919205692181 ] } },
{ "type": "Feature", "properties": { "OBJECTID": 84, "GlobalID": "b2293905-626f-4eb5-91e5-6c6c36d045b4", "CreationDa": "2019-10-22T00:00:00", "Creator": "cat656_Harvard_CGA", "EditDate": "2019-10-22T00:00:00", "Editor": "cat656_Harvard_CGA", "Point_Numb": 51, "Point_Name": "Palacio Municipal De Comas", "District": "Comas", "Zona_ID": 2003.0, "Punto_ID": 2051.0 }, "geometry": { "type": "Point", "coordinates": [ -77.049454223862369, -11.957234889115268 ] } },
{ "type": "Feature", "properties": { "OBJECTID": 85, "GlobalID": "b5ef25f2-2626-48d2-ae5c-3c7813b837f8", "CreationDa": "2019-10-22T00:00:00", "Creator": "cat656_Harvard_CGA", "EditDate": "2019-10-22T00:00:00", "Editor": "cat656_Harvard_CGA", "Point_Numb": 65, "Point_Name": "CS Santiago Apostol", "District": "Comas", "Zona_ID": 2003.0, "Punto_ID": 2065.0 }, "geometry": { "type": "Point", "coordinates": [ -77.043562682360275, -11.956747377704843 ] } },
{ "type": "Feature", "properties": { "OBJECTID": 86, "GlobalID": "48dc004e-2d1f-4888-ad21-e88451698275", "CreationDa": "2019-10-22T00:00:00", "Creator": "cat656_Harvard_CGA", "EditDate": "2019-10-22T00:00:00", "Editor": "cat656_Harvard_CGA", "Point_Numb": 83, "Point_Name": "CS Comas", "District": "Comas", "Zona_ID": 2003.0, "Punto_ID": 2083.0 }, "geometry": { "type": "Point", "coordinates": [ -77.048455364640077, -11.953694753325783 ] } },
{ "type": "Feature", "properties": { "OBJECTID": 87, "GlobalID": "8718ab32-1a45-4d84-8b43-61b578ad1549", "CreationDa": "2019-10-22T00:00:00", "Creator": "cat656_Harvard_CGA", "EditDate": "2019-10-22T00:00:00", "Editor": "cat656_Harvard_CGA", "Point_Numb": 4, "Point_Name": "Parque Chino", "District": "Comas", "Zona_ID": 2003.0, "Punto_ID": 2004.0 }, "geometry": { "type": "Point", "coordinates": [ -77.038847317636098, -11.956840001521812 ] } },
{ "type": "Feature", "properties": { "OBJECTID": 88, "GlobalID": "f36509f9-1195-4877-a191-580b043070ae", "CreationDa": "2019-10-22T00:00:00", "Creator": "cat656_Harvard_CGA", "EditDate": "2019-10-22T00:00:00", "Editor": "cat656_Harvard_CGA", "Point_Numb": 5, "Point_Name": "Parque Salpo", "District": "Comas", "Zona_ID": 2003.0, "Punto_ID": 2005.0 }, "geometry": { "type": "Point", "coordinates": [ -77.041918447386735, -11.958624326660622 ] } },
{ "type": "Feature", "properties": { "OBJECTID": 89, "GlobalID": "e8adb575-fe97-4a3c-9ce9-8de47d10c668", "CreationDa": "2019-10-22T00:00:00", "Creator": "cat656_Harvard_CGA", "EditDate": "2019-10-22T00:00:00", "Editor": "cat656_Harvard_CGA", "Point_Numb": 3, "Point_Name": "Parque Tahuantinsuyo", "District": "Comas", "Zona_ID": 2003.0, "Punto_ID": 2003.0 }, "geometry": { "type": "Point", "coordinates": [ -77.03610390677585, -11.957989506194215 ] } },
{ "type": "Feature", "properties": { "OBJECTID": 90, "GlobalID": "50fb2a6a-9a85-479c-8bc3-7be0f3a62775", "CreationDa": "2019-10-22T00:00:00", "Creator": "cat656_Harvard_CGA", "EditDate": "2019-10-22T00:00:00", "Editor": "cat656_Harvard_CGA", "Point_Numb": 78, "Point_Name": "Mercado Central de Comas", "District": "Comas", "Zona_ID": 2003.0, "Punto_ID": 2078.0 }, "geometry": { "type": "Point", "coordinates": [ -77.048889271583548, -11.956984753690499 ] } },
{ "type": "Feature", "properties": { "OBJECTID": 91, "GlobalID": "35e5e290-7b30-4ed5-a49d-c4ddc722d871", "CreationDa": "2019-10-22T00:00:00", "Creator": "cat656_Harvard_CGA", "EditDate": "2019-10-22T00:00:00", "Editor": "cat656_Harvard_CGA", "Point_Numb": 6, "Point_Name": "Mercado Chacra Cerro- Libertadores", "District": "Comas", "Zona_ID": 2013.0, "Punto_ID": 2006.0 }, "geometry": { "type": "Point", "coordinates": [ -77.051371224187108, -11.937369505034349 ] } },
{ "type": "Feature", "properties": { "OBJECTID": 92, "GlobalID": "a56d6407-87fa-4839-8949-92b7fbab1633", "CreationDa": "2019-10-22T00:00:00", "Creator": "cat656_Harvard_CGA", "EditDate": "2019-10-22T00:00:00", "Editor": "cat656_Harvard_CGA", "Point_Numb": 7, "Point_Name": "Parque Simon Bolivar", "District": "Comas", "Zona_ID": 2013.0, "Punto_ID": 2007.0 }, "geometry": { "type": "Point", "coordinates": [ -77.053940780497157, -11.940077670632672 ] } },
{ "type": "Feature", "properties": { "OBJECTID": 93, "GlobalID": "5a3c12d6-e91d-4973-9d44-b68536c08104", "CreationDa": "2019-10-22T00:00:00", "Creator": "cat656_Harvard_CGA", "EditDate": "2019-10-22T00:00:00", "Editor": "cat656_Harvard_CGA", "Point_Numb": 41, "Point_Name": "CS Carmen Medio", "District": "Comas", "Zona_ID": 2002.0, "Punto_ID": 2041.0 }, "geometry": { "type": "Point", "coordinates": [ -77.040076589338881, -11.941100001891533 ] } },
{ "type": "Feature", "properties": { "OBJECTID": 94, "GlobalID": "2958bbb1-406a-4621-b42a-a33a26a3a0ce", "CreationDa": "2019-10-22T00:00:00", "Creator": "cat656_Harvard_CGA", "EditDate": "2019-10-22T00:00:00", "Editor": "cat656_Harvard_CGA", "Point_Numb": 8, "Point_Name": "Parque Colegio 2022", "District": "Comas", "Zona_ID": 2010.0, "Punto_ID": 2008.0 }, "geometry": { "type": "Point", "coordinates": [ -77.04929195308776, -11.929627377514178 ] } },
{ "type": "Feature", "properties": { "OBJECTID": 95, "GlobalID": "4c24a01d-2f9e-492b-9999-b60ba7f9d542", "CreationDa": "2019-10-22T00:00:00", "Creator": "cat656_Harvard_CGA", "EditDate": "2019-10-22T00:00:00", "Editor": "cat656_Harvard_CGA", "Point_Numb": 42, "Point_Name": "Colegio José Carlos Mariategui", "District": "Comas", "Zona_ID": 2006.0, "Punto_ID": 2042.0 }, "geometry": { "type": "Point", "coordinates": [ -77.063375364616391, -11.939882626043627 ] } },
{ "type": "Feature", "properties": { "OBJECTID": 96, "GlobalID": "d6c64651-0be1-44e8-89d0-55f32881ea34", "CreationDa": "2019-10-22T00:00:00", "Creator": "cat656_Harvard_CGA", "EditDate": "2019-10-22T00:00:00", "Editor": "cat656_Harvard_CGA", "Point_Numb": 10, "Point_Name": "Bellido y 6 de Agosto", "District": "Comas", "Zona_ID": 2002.0, "Punto_ID": 2010.0 }, "geometry": { "type": "Point", "coordinates": [ -77.040255364860201, -11.938419505028525 ] } },
{ "type": "Feature", "properties": { "OBJECTID": 97, "GlobalID": "a4b42816-c3b7-42e5-9385-ac469440980e", "CreationDa": "2019-10-22T00:00:00", "Creator": "cat656_Harvard_CGA", "EditDate": "2019-10-22T00:00:00", "Editor": "cat656_Harvard_CGA", "Point_Numb": 43, "Point_Name": "CS Husares de Junin", "District": "Comas", "Zona_ID": 2013.0, "Punto_ID": 2043.0 }, "geometry": { "type": "Point", "coordinates": [ -77.051300000361493, -11.935847377367036 ] } },
{ "type": "Feature", "properties": { "OBJECTID": 98, "GlobalID": "8bcabffb-2eb8-4e1d-9035-859ee4731488", "CreationDa": "2019-10-22T00:00:00", "Creator": "cat656_Harvard_CGA", "EditDate": "2019-10-22T00:00:00", "Editor": "cat656_Harvard_CGA", "Point_Numb": 9, "Point_Name": "Mercado El Carmen", "District": "Comas", "Zona_ID": 2002.0, "Punto_ID": 2009.0 }, "geometry": { "type": "Point", "coordinates": [ -77.041747317426783, -11.940342626393857 ] } },
{ "type": "Feature", "properties": { "OBJECTID": 99, "GlobalID": "cf3e9212-bc07-4f09-ae34-8c920e92b85f", "CreationDa": "2019-10-22T00:00:00", "Creator": "cat656_Harvard_CGA", "EditDate": "2019-10-22T00:00:00", "Editor": "cat656_Harvard_CGA", "Point_Numb": 45, "Point_Name": "Señor de los Milagros", "District": "Comas", "Zona_ID": 2002.0, "Punto_ID": 2045.0 }, "geometry": { "type": "Point", "coordinates": [ -77.044241771884131, -11.941893509295975 ] } },
{ "type": "Feature", "properties": { "OBJECTID": 100, "GlobalID": "a738040d-2055-4212-ae3d-e9901f780e99", "CreationDa": "2019-10-22T00:00:00", "Creator": "cat656_Harvard_CGA", "EditDate": "2019-10-22T00:00:00", "Editor": "cat656_Harvard_CGA", "Point_Numb": 48, "Point_Name": "Parque San Agustín", "District": "Comas", "Zona_ID": 2010.0, "Punto_ID": 2048.0 }, "geometry": { "type": "Point", "coordinates": [ -77.049707550569124, -11.933287377872482 ] } },
{ "type": "Feature", "properties": { "OBJECTID": 101, "GlobalID": "aac67b19-7534-42f0-9358-217df6edf5c8", "CreationDa": "2019-10-22T00:00:00", "Creator": "cat656_Harvard_CGA", "EditDate": "2019-10-22T00:00:00", "Editor": "cat656_Harvard_CGA", "Point_Numb": 16, "Point_Name": "Comisaria CIE Comas Collique", "District": "Comas", "Zona_ID": 2012.0, "Punto_ID": 2016.0 }, "geometry": { "type": "Point", "coordinates": [ -77.028954635841103, -11.914347377547168 ] } },
{ "type": "Feature", "properties": { "OBJECTID": 102, "GlobalID": "ab95bda5-2d54-491f-ba0e-574164f92389", "CreationDa": "2019-10-22T00:00:00", "Creator": "cat656_Harvard_CGA", "EditDate": "2019-10-22T00:00:00", "Editor": "cat656_Harvard_CGA", "Point_Numb": 61, "Point_Name": "Revolución y Túpac Amaru", "District": "Comas", "Zona_ID": 2005.0, "Punto_ID": 2061.0 }, "geometry": { "type": "Point", "coordinates": [ -77.040681224695376, -11.916196879386582 ] } },
{ "type": "Feature", "properties": { "OBJECTID": 103, "GlobalID": "0b4ab797-f3c3-44b6-b158-b85fb7480eaf", "CreationDa": "2019-10-22T00:00:00", "Creator": "cat656_Harvard_CGA", "EditDate": "2019-10-22T00:00:00", "Editor": "cat656_Harvard_CGA", "Point_Numb": 17, "Point_Name": "Loza Deportiva Micaela Bastidas (Collique III)", "District": "Comas", "Zona_ID": 2005.0, "Punto_ID": 2017.0 }, "geometry": { "type": "Point", "coordinates": [ -77.033164635335879, -11.915724753280825 ] } },
{ "type": "Feature", "properties": { "OBJECTID": 105, "GlobalID": "12a344a6-0c84-4d21-b9f5-459eca37cb97", "CreationDa": "2019-10-22T00:00:00", "Creator": "cat656_Harvard_CGA", "EditDate": "2019-10-22T00:00:00", "Editor": "cat656_Harvard_CGA", "Point_Numb": 1, "Point_Name": "Hospital Sergio E. Bernales (Collique)", "District": "Comas", "Zona_ID": 2005.0, "Punto_ID": 2001.0 }, "geometry": { "type": "Point", "coordinates": [ -77.038035364586761, -11.913982626047131 ] } },
{ "type": "Feature", "properties": { "OBJECTID": 106, "GlobalID": "0df8c9ce-cf86-4634-882f-ab79a4a02c2d", "CreationDa": "2019-10-22T00:00:00", "Creator": "cat656_Harvard_CGA", "EditDate": "2019-10-22T00:00:00", "Editor": "cat656_Harvard_CGA", "Point_Numb": 50, "Point_Name": "Cancha Chancadora", "District": "Comas", "Zona_ID": 2005.0, "Punto_ID": 2050.0 }, "geometry": { "type": "Point", "coordinates": [ -77.032531953677903, -11.911422128432804 ] } },
{ "type": "Feature", "properties": { "OBJECTID": 107, "GlobalID": "3c351d57-8c95-448b-9642-df5b9fbdeb09", "CreationDa": "2019-10-22T00:00:00", "Creator": "cat656_Harvard_CGA", "EditDate": "2019-10-22T00:00:00", "Editor": "cat656_Harvard_CGA", "Point_Numb": 15, "Point_Name": "Colegio 2038 Inca Garcilaso de la Vega", "District": "Comas", "Zona_ID": 2005.0, "Punto_ID": 2015.0 }, "geometry": { "type": "Point", "coordinates": [ -77.029195364574292, -11.917944255574676 ] } },
{ "type": "Feature", "properties": { "OBJECTID": 108, "GlobalID": "53717d8f-7fbe-4eed-b3b1-fc85ac454ed5", "CreationDa": "2019-10-22T00:00:00", "Creator": "cat656_Harvard_CGA", "EditDate": "2019-10-22T00:00:00", "Editor": "cat656_Harvard_CGA", "Point_Numb": 54, "Point_Name": "Campo San Pedro / Campo Cesar Vallejo", "District": "Comas", "Zona_ID": 2005.0, "Punto_ID": 2054.0 }, "geometry": { "type": "Point", "coordinates": [ -77.03693000020607, -11.917795250398319 ] } },
{ "type": "Feature", "properties": { "OBJECTID": 109, "GlobalID": "b8a7203e-8447-4b63-b3c0-7f6c7c5ed92f", "CreationDa": "2019-10-22T00:00:00", "Creator": "cat656_Harvard_CGA", "EditDate": "2019-10-22T00:00:00", "Editor": "cat656_Harvard_CGA", "Point_Numb": 59, "Point_Name": "Séptima Zona de Cautivo de Ayabaca", "District": "Comas", "Zona_ID": 2012.0, "Punto_ID": 2059.0 }, "geometry": { "type": "Point", "coordinates": [ -77.003259271268234, -11.91291525096006 ] } },
{ "type": "Feature", "properties": { "OBJECTID": 110, "GlobalID": "37206839-081c-4056-bd93-68565a1fb0e0", "CreationDa": "2019-10-22T00:00:00", "Creator": "cat656_Harvard_CGA", "EditDate": "2019-10-22T00:00:00", "Editor": "cat656_Harvard_CGA", "Point_Numb": 49, "Point_Name": "Mercado Santa Rosa (frente a Corporación Vega)", "District": "Comas", "Zona_ID": 2005.0, "Punto_ID": 2049.0 }, "geometry": { "type": "Point", "coordinates": [ -77.031667318030415, -11.913476880039559 ] } },
{ "type": "Feature", "properties": { "OBJECTID": 111, "GlobalID": "a6e4bbb2-abb4-46e1-a143-df5a314a0b30", "CreationDa": "2019-10-22T00:00:00", "Creator": "cat656_Harvard_CGA", "EditDate": "2019-10-22T00:00:00", "Editor": "cat656_Harvard_CGA", "Point_Numb": 18, "Point_Name": "Loza Deportiva Guillen", "District": "Comas", "Zona_ID": 2012.0, "Punto_ID": 2018.0 }, "geometry": { "type": "Point", "coordinates": [ -77.026863481827164, -11.912889005859265 ] } },
{ "type": "Feature", "properties": { "OBJECTID": 112, "GlobalID": "3369770f-7984-4ce3-8665-350787dde57d", "CreationDa": "2019-10-22T00:00:00", "Creator": "cat656_Harvard_CGA", "EditDate": "2019-10-22T00:00:00", "Editor": "cat656_Harvard_CGA", "Point_Numb": 11, "Point_Name": "Parque Tupac Amaru", "District": "Comas", "Zona_ID": 2005.0, "Punto_ID": 2011.0 }, "geometry": { "type": "Point", "coordinates": [ -77.034778279979065, -11.915232626492275 ] } },
{ "type": "Feature", "properties": { "OBJECTID": 113, "GlobalID": "50d1748b-413f-4886-b729-029cd2ef5793", "CreationDa": "2019-10-22T00:00:00", "Creator": "cat656_Harvard_CGA", "EditDate": "2019-10-22T00:00:00", "Editor": "cat656_Harvard_CGA", "Point_Numb": 53, "Point_Name": "Local Comunal Collique III Zona", "District": "Comas", "Zona_ID": 2012.0, "Punto_ID": 2053.0 }, "geometry": { "type": "Point", "coordinates": [ -77.026236588912894, -11.914281631094505 ] } },
{ "type": "Feature", "properties": { "OBJECTID": 114, "GlobalID": "2747b010-1df0-461a-a2b3-3aadbaabc502", "CreationDa": "2019-10-22T00:00:00", "Creator": "cat656_Harvard_CGA", "EditDate": "2019-10-22T00:00:00", "Editor": "cat656_Harvard_CGA", "Point_Numb": 37, "Point_Name": "CS Gustavo Lanatta", "District": "Comas", "Zona_ID": 2012.0, "Punto_ID": 2037.0 }, "geometry": { "type": "Point", "coordinates": [ -77.011042681826652, -11.914550002212991 ] } },
{ "type": "Feature", "properties": { "OBJECTID": 115, "GlobalID": "1c9eebf0-faf0-4492-b90d-de63c0c0ba9b", "CreationDa": "2019-10-22T00:00:00", "Creator": "cat656_Harvard_CGA", "EditDate": "2019-10-22T00:00:00", "Editor": "cat656_Harvard_CGA", "Point_Numb": 39, "Point_Name": "Loza Deportiva Husares de Junin", "District": "Comas", "Zona_ID": 2012.0, "Punto_ID": 2039.0 }, "geometry": { "type": "Point", "coordinates": [ -77.01499357575247, -11.915447554174309 ] } },
{ "type": "Feature", "properties": { "OBJECTID": 116, "GlobalID": "80a4d60b-64dd-4f92-841b-e30a59337665", "CreationDa": "2019-10-22T00:00:00", "Creator": "cat656_Harvard_CGA", "EditDate": "2019-10-22T00:00:00", "Editor": "cat656_Harvard_CGA", "Point_Numb": 38, "Point_Name": "Comisaria de Collique IV Zona", "District": "Comas", "Zona_ID": 2012.0, "Punto_ID": 2038.0 }, "geometry": { "type": "Point", "coordinates": [ -77.016243485350586, -11.913172174884346 ] } },
{ "type": "Feature", "properties": { "OBJECTID": 118, "GlobalID": "df1eeea3-be0c-41d2-ba16-569451489c3d", "CreationDa": "2019-10-22T00:00:00", "Creator": "cat656_Harvard_CGA", "EditDate": "2019-10-22T00:00:00", "Editor": "cat656_Harvard_CGA", "Point_Numb": 52, "Point_Name": "IE República de Cuba", "District": "Comas", "Zona_ID": 2005.0, "Punto_ID": 2052.0 }, "geometry": { "type": "Point", "coordinates": [ -77.034004635585021, -11.908540001436808 ] } },
{ "type": "Feature", "properties": { "OBJECTID": 119, "GlobalID": "6d77a45f-4731-479b-a28e-a0ec77411bbf", "CreationDa": "2019-10-22T00:00:00", "Creator": "cat656_Harvard_CGA", "EditDate": "2019-10-22T00:00:00", "Editor": "cat656_Harvard_CGA", "Point_Numb": 60, "Point_Name": "Colegio Virgen De Guadalupe", "District": "Comas", "Zona_ID": 2012.0, "Punto_ID": 2060.0 }, "geometry": { "type": "Point", "coordinates": [ -77.017554635796557, -11.911317875226871 ] } },
{ "type": "Feature", "properties": { "OBJECTID": 120, "GlobalID": "b7a17825-afbe-49a2-9cc8-0cb0bae4f6da", "CreationDa": "2019-10-22T00:00:00", "Creator": "cat656_Harvard_CGA", "EditDate": "2019-10-22T00:00:00", "Editor": "cat656_Harvard_CGA", "Point_Numb": 19, "Point_Name": "CS Collique 3era Zona", "District": "Comas", "Zona_ID": 2012.0, "Punto_ID": 2019.0 }, "geometry": { "type": "Point", "coordinates": [ -77.025897474893142, -11.914407234053119 ] } },
{ "type": "Feature", "properties": { "OBJECTID": 121, "GlobalID": "63d87c87-4074-4d29-9a9f-392a7db39630", "CreationDa": "2019-10-22T00:00:00", "Creator": "cat656_Harvard_CGA", "EditDate": "2019-10-22T00:00:00", "Editor": "cat656_Harvard_CGA", "Point_Numb": 62, "Point_Name": "Mercado 12 de Febrero", "District": "Comas", "Zona_ID": 2012.0, "Punto_ID": 2062.0 }, "geometry": { "type": "Point", "coordinates": [ -77.022211962166864, -11.911641217546794 ] } },
{ "type": "Feature", "properties": { "OBJECTID": 122, "GlobalID": "1d835d15-c323-4b02-baa1-210de2b6d206", "CreationDa": "2019-10-22T00:00:00", "Creator": "cat656_Harvard_CGA", "EditDate": "2019-10-22T00:00:00", "Editor": "cat656_Harvard_CGA", "Point_Numb": 30, "Point_Name": "Parque Las Ñustas", "District": "Comas", "Zona_ID": 2009.0, "Punto_ID": 2030.0 }, "geometry": { "type": "Point", "coordinates": [ -77.057680495771038, -11.916650635376566 ] } },
{ "type": "Feature", "properties": { "OBJECTID": 123, "GlobalID": "64fddc4b-2864-4cb0-8527-bbab1b393245", "CreationDa": "2019-10-22T00:00:00", "Creator": "cat656_Harvard_CGA", "EditDate": "2019-10-22T00:00:00", "Editor": "cat656_Harvard_CGA", "Point_Numb": 29, "Point_Name": "CS Laura Rodriguez", "District": "Comas", "Zona_ID": 2009.0, "Punto_ID": 2029.0 }, "geometry": { "type": "Point", "coordinates": [ -77.055550821997713, -11.915739965418741 ] } },
{ "type": "Feature", "properties": { "OBJECTID": 124, "GlobalID": "abf652e4-5e52-4dfb-90de-0a30ea252894", "CreationDa": "2019-10-22T00:00:00", "Creator": "cat656_Harvard_CGA", "EditDate": "2019-10-22T00:00:00", "Editor": "cat656_Harvard_CGA", "Point_Numb": 47, "Point_Name": "Loza Deportiva San Juan 3era", "District": "Comas", "Zona_ID": 2009.0, "Punto_ID": 2047.0 }, "geometry": { "type": "Point", "coordinates": [ -77.047427317357574, -11.912292626373619 ] } },
{ "type": "Feature", "properties": { "OBJECTID": 125, "GlobalID": "66459d14-9bf8-4ef1-afeb-4f26ebab1c0a", "CreationDa": "2019-10-22T00:00:00", "Creator": "cat656_Harvard_CGA", "EditDate": "2019-10-22T00:00:00", "Editor": "cat656_Harvard_CGA", "Point_Numb": 28, "Point_Name": "Empresa Improplast SAC", "District": "Comas", "Zona_ID": 2014.0, "Punto_ID": 2028.0 }, "geometry": { "type": "Point", "coordinates": [ -77.063604635338152, -11.916377377577763 ] } },
{ "type": "Feature", "properties": { "OBJECTID": 126, "GlobalID": "e8cf9b2a-8439-4885-ac8d-ad43f4f4e7da", "CreationDa": "2019-10-22T00:00:00", "Creator": "cat656_Harvard_CGA", "EditDate": "2019-10-22T00:00:00", "Editor": "cat656_Harvard_CGA", "Point_Numb": 34, "Point_Name": "Parque Cesar Villegas Delgado", "District": "Comas", "Zona_ID": 2008.0, "Punto_ID": 2034.0 }, "geometry": { "type": "Point", "coordinates": [ -77.052814635388998, -11.906780002252088 ] } },
{ "type": "Feature", "properties": { "OBJECTID": 127, "GlobalID": "52e5bd8c-d791-4549-8a0c-4268ba38e4fe", "CreationDa": "2019-10-22T00:00:00", "Creator": "cat656_Harvard_CGA", "EditDate": "2019-10-22T00:00:00", "Editor": "cat656_Harvard_CGA", "Point_Numb": 33, "Point_Name": "Loza Deportiva Yoshiyama", "District": "Comas", "Zona_ID": 2008.0, "Punto_ID": 2033.0 }, "geometry": { "type": "Point", "coordinates": [ -77.049275418696638, -11.907459992401112 ] } },
{ "type": "Feature", "properties": { "OBJECTID": 128, "GlobalID": "3bd45114-39f4-463b-8c3f-76de435fee64", "CreationDa": "2019-10-22T00:00:00", "Creator": "cat656_Harvard_CGA", "EditDate": "2019-10-22T00:00:00", "Editor": "cat656_Harvard_CGA", "Point_Numb": 31, "Point_Name": "Colegio Apolonius", "District": "Comas", "Zona_ID": 2009.0, "Punto_ID": 2031.0 }, "geometry": { "type": "Point", "coordinates": [ -77.04927000005884, -11.9158347531827 ] } },
{ "type": "Feature", "properties": { "OBJECTID": 129, "GlobalID": "278c2d5c-587d-4ab5-aed7-5fa00b639f12", "CreationDa": "2019-10-22T00:00:00", "Creator": "cat656_Harvard_CGA", "EditDate": "2019-10-22T00:00:00", "Editor": "cat656_Harvard_CGA", "Point_Numb": 35, "Point_Name": "IEP Colegio Jesus Reparador", "District": "Comas", "Zona_ID": 2010.0, "Punto_ID": 2035.0 }, "geometry": { "type": "Point", "coordinates": [ -77.053801953056507, -11.920494753471969 ] } },
{ "type": "Feature", "properties": { "OBJECTID": 130, "GlobalID": "1797411c-7948-4578-803b-8e7a6f3752d5", "CreationDa": "2019-10-22T00:00:00", "Creator": "cat656_Harvard_CGA", "EditDate": "2019-10-22T00:00:00", "Editor": "cat656_Harvard_CGA", "Point_Numb": 32, "Point_Name": "Parque N1 Tungasuca", "District": "Comas", "Zona_ID": 2008.0, "Punto_ID": 2032.0 }, "geometry": { "type": "Point", "coordinates": [ -77.048120728722012, -11.898773622670376 ] } },
{ "type": "Feature", "properties": { "OBJECTID": 131, "GlobalID": "93265b49-5617-41d9-ae51-d160254f4e5b", "CreationDa": "2019-10-22T00:00:00", "Creator": "cat656_Harvard_CGA", "EditDate": "2019-10-22T00:00:00", "Editor": "cat656_Harvard_CGA", "Point_Numb": 57, "Point_Name": "Parque Zonal Sinchi Roca", "District": "Comas", "Zona_ID": 2004.0, "Punto_ID": 2057.0 }, "geometry": { "type": "Point", "coordinates": [ -77.048827551035316, -11.922604753163071 ] } },
{ "type": "Feature", "properties": { "OBJECTID": 132, "GlobalID": "3de7be02-26f7-45ca-88d3-80f362e00953", "CreationDa": "2019-10-22T00:00:00", "Creator": "cat656_Harvard_CGA", "EditDate": "2019-10-22T00:00:00", "Editor": "cat656_Harvard_CGA", "Point_Numb": 66, "Point_Name": "Odicemoc", "District": "Comas", "Zona_ID": 2004.0, "Punto_ID": 2066.0 }, "geometry": { "type": "Point", "coordinates": [ -77.040749999713526, -11.924595250337703 ] } },
{ "type": "Feature", "properties": { "OBJECTID": 133, "GlobalID": "91fd13de-bc26-48fe-bbf3-4e4324d195dd", "CreationDa": "2019-10-22T00:00:00", "Creator": "cat656_Harvard_CGA", "EditDate": "2019-10-22T00:00:00", "Editor": "cat656_Harvard_CGA", "Point_Numb": 46, "Point_Name": "CS Año Nuevo", "District": "Comas", "Zona_ID": 2004.0, "Punto_ID": 2046.0 }, "geometry": { "type": "Point", "coordinates": [ -77.038121434869083, -11.924012649217145 ] } },
{ "type": "Feature", "properties": { "OBJECTID": 134, "GlobalID": "0bb414b3-c34b-434f-98f7-cbbf99c43c7d", "CreationDa": "2019-10-22T00:00:00", "Creator": "cat656_Harvard_CGA", "EditDate": "2019-10-22T00:00:00", "Editor": "cat656_Harvard_CGA", "Point_Numb": 64, "Point_Name": "Planta de Saneamiento", "District": "Comas", "Zona_ID": 2004.0, "Punto_ID": 2064.0 }, "geometry": { "type": "Point", "coordinates": [ -77.042431953149219, -11.930105250368243 ] } },
{ "type": "Feature", "properties": { "OBJECTID": 135, "GlobalID": "c32a0402-afc0-46b0-9d94-bfa98ec71ddf", "CreationDa": "2019-10-22T00:00:00", "Creator": "cat656_Harvard_CGA", "EditDate": "2019-10-22T00:00:00", "Editor": "cat656_Harvard_CGA", "Point_Numb": 56, "Point_Name": "Plaza de Armas Año Nuevo", "District": "Comas", "Zona_ID": 2004.0, "Punto_ID": 2056.0 }, "geometry": { "type": "Point", "coordinates": [ -77.038530000338383, -11.923957377581031 ] } },
{ "type": "Feature", "properties": { "OBJECTID": 136, "GlobalID": "e098fbdb-3dc3-4349-a171-be5c92844293", "CreationDa": "2019-10-22T00:00:00", "Creator": "cat656_Harvard_CGA", "EditDate": "2019-10-22T00:00:00", "Editor": "cat656_Harvard_CGA", "Point_Numb": 67, "Point_Name": "Corporación Vega Comas", "District": "Comas", "Zona_ID": 2004.0, "Punto_ID": 2067.0 }, "geometry": { "type": "Point", "coordinates": [ -77.041606493929592, -11.923513864592271 ] } },
{ "type": "Feature", "properties": { "OBJECTID": 137, "GlobalID": "d478b523-b09d-416d-8881-607220d903a1", "CreationDa": "2019-10-22T00:00:00", "Creator": "cat656_Harvard_CGA", "EditDate": "2019-10-22T00:00:00", "Editor": "cat656_Harvard_CGA", "Point_Numb": 72, "Point_Name": "Colegio Luis Enrique", "District": "Comas", "Zona_ID": 2004.0, "Punto_ID": 2072.0 }, "geometry": { "type": "Point", "coordinates": [ -77.038589999714546, -11.919767377727588 ] } },
{ "type": "Feature", "properties": { "OBJECTID": 138, "GlobalID": "00411f52-1da8-4841-b6a1-0d93ccbc1538", "CreationDa": "2019-10-22T00:00:00", "Creator": "cat656_Harvard_CGA", "EditDate": "2019-10-22T00:00:00", "Editor": "cat656_Harvard_CGA", "Point_Numb": 73, "Point_Name": "Mercado Tanque de Agua", "District": "Comas", "Zona_ID": 2004.0, "Punto_ID": 2073.0 }, "geometry": { "type": "Point", "coordinates": [ -77.036302076025834, -11.920134789931025 ] } },
{ "type": "Feature", "properties": { "OBJECTID": 139, "GlobalID": "5ef752e4-ebf7-4af8-a5d3-e8d920755981", "CreationDa": "2019-10-22T00:00:00", "Creator": "cat656_Harvard_CGA", "EditDate": "2019-10-22T00:00:00", "Editor": "cat656_Harvard_CGA", "Point_Numb": 74, "Point_Name": "Paradero ESTUNSAC", "District": "Comas", "Zona_ID": 2004.0, "Punto_ID": 2074.0 }, "geometry": { "type": "Point", "coordinates": [ -77.035543010390541, -11.92188261539636 ] } },
{ "type": "Feature", "properties": { "OBJECTID": 140, "GlobalID": "31c4d1d4-517d-4ddd-97dd-2f894f630d06", "CreationDa": "2019-10-22T00:00:00", "Creator": "cat656_Harvard_CGA", "EditDate": "2019-10-22T00:00:00", "Editor": "cat656_Harvard_CGA", "Point_Numb": 24, "Point_Name": "Radio Comas", "District": "Comas", "Zona_ID": 2011.0, "Punto_ID": 2024.0 }, "geometry": { "type": "Point", "coordinates": [ -77.054109271206798, -11.958705250113592 ] } },
{ "type": "Feature", "properties": { "OBJECTID": 141, "GlobalID": "1d6feaa7-e6a5-42b4-ada9-bfc4a2fd3386", "CreationDa": "2019-10-22T00:00:00", "Creator": "cat656_Harvard_CGA", "EditDate": "2019-10-22T00:00:00", "Editor": "cat656_Harvard_CGA", "Point_Numb": 25, "Point_Name": "Anexo Municipal", "District": "Comas", "Zona_ID": 2011.0, "Punto_ID": 2025.0 }, "geometry": { "type": "Point", "coordinates": [ -77.055008542298367, -11.962412625960834 ] } },
{ "type": "Feature", "properties": { "OBJECTID": 142, "GlobalID": "6fc849c8-317d-4bda-923b-9224fca1ca42", "CreationDa": "2019-10-22T00:00:00", "Creator": "cat656_Harvard_CGA", "EditDate": "2020-02-01T00:00:00", "Editor": "cat656_Harvard_CGA", "Point_Numb": 55, "Point_Name": "ISTP Carlos Cueto Fernandini", "District": "Comas", "Zona_ID": 2001.0, "Punto_ID": 2055.0 }, "geometry": { "type": "Point", "coordinates": [ -77.055192483132586, -11.963139861732031 ] } },
{ "type": "Feature", "properties": { "OBJECTID": 143, "GlobalID": "32307ec6-5d92-466c-a240-56410393fb58", "CreationDa": "2019-10-22T00:00:00", "Creator": "cat656_Harvard_CGA", "EditDate": "2019-10-22T00:00:00", "Editor": "cat656_Harvard_CGA", "Point_Numb": 58, "Point_Name": "EsSalud Marino Molina", "District": "Comas", "Zona_ID": 2006.0, "Punto_ID": 2058.0 }, "geometry": { "type": "Point", "coordinates": [ -77.057832682058262, -11.943580001540905 ] } },
{ "type": "Feature", "properties": { "OBJECTID": 144, "GlobalID": "8c79ccba-a9e8-401e-80fc-b20e06e30225", "CreationDa": "2019-10-22T00:00:00", "Creator": "cat656_Harvard_CGA", "EditDate": "2019-10-22T00:00:00", "Editor": "cat656_Harvard_CGA", "Point_Numb": 26, "Point_Name": "Parroquia Nuestra Señora de la Paz", "District": "Comas", "Zona_ID": 2011.0, "Punto_ID": 2026.0 }, "geometry": { "type": "Point", "coordinates": [ -77.052034635414316, -11.953539506094256 ] } },
{ "type": "Feature", "properties": { "OBJECTID": 145, "GlobalID": "c6c4535a-99fc-428f-a606-4b81233b6ce7", "CreationDa": "2019-10-22T00:00:00", "Creator": "cat656_Harvard_CGA", "EditDate": "2019-10-22T00:00:00", "Editor": "cat656_Harvard_CGA", "Point_Numb": 21, "Point_Name": "CS Carlos Phillips", "District": "Comas", "Zona_ID": 2011.0, "Punto_ID": 2021.0 }, "geometry": { "type": "Point", "coordinates": [ -77.057453906520408, -11.959627873490561 ] } },
{ "type": "Feature", "properties": { "OBJECTID": 146, "GlobalID": "e90db6df-efb9-4d15-bbb5-2b3fa292ef43", "CreationDa": "2019-10-22T00:00:00", "Creator": "cat656_Harvard_CGA", "EditDate": "2019-10-22T00:00:00", "Editor": "cat656_Harvard_CGA", "Point_Numb": 20, "Point_Name": "Deport Center", "District": "Comas", "Zona_ID": 2001.0, "Punto_ID": 2020.0 }, "geometry": { "type": "Point", "coordinates": [ -77.057934635453108, -11.964757378186615 ] } },
{ "type": "Feature", "properties": { "OBJECTID": 147, "GlobalID": "896bc737-211f-4f98-8508-fd1110ce00a8", "CreationDa": "2019-10-22T00:00:00", "Creator": "cat656_Harvard_CGA", "EditDate": "2019-10-22T00:00:00", "Editor": "cat656_Harvard_CGA", "Point_Numb": 2, "Point_Name": "Centro Cívico Municipal Comas", "District": "Comas", "Zona_ID": 2006.0, "Punto_ID": 2002.0 }, "geometry": { "type": "Point", "coordinates": [ -77.059312682539996, -11.948445250422935 ] } },
{ "type": "Feature", "properties": { "OBJECTID": 148, "GlobalID": "d28ef875-0a03-4c37-a4fd-b8415dc30205", "CreationDa": "2019-10-22T00:00:00", "Creator": "cat656_Harvard_CGA", "EditDate": "2019-10-22T00:00:00", "Editor": "cat656_Harvard_CGA", "Point_Numb": 23, "Point_Name": "Mercado Plaza 8", "District": "Comas", "Zona_ID": 2001.0, "Punto_ID": 2023.0 }, "geometry": { "type": "Point", "coordinates": [ -77.059915745844719, -11.966063517384264 ] } },
{ "type": "Feature", "properties": { "OBJECTID": 149, "GlobalID": "9fdb591e-6416-4d8d-b79e-af7a2c2dbf70", "CreationDa": "2019-11-28T00:00:00", "Creator": "cat656_Harvard_CGA", "EditDate": "2019-11-28T00:00:00", "Editor": "cat656_Harvard_CGA", "Point_Numb": 149, "Point_Name": "CS La Flor", "District": "Carabayllo", "Zona_ID": 1012.0, "Punto_ID": 1149.0 }, "geometry": { "type": "Point", "coordinates": [ -77.027207317392055, -11.896236064869791 ] } },
{ "type": "Feature", "properties": { "OBJECTID": 150, "GlobalID": "c75bd57c-2957-4ac3-9298-df76bc19ffe4", "CreationDa": "2019-11-28T00:00:00", "Creator": "cat656_Harvard_CGA", "EditDate": "2019-11-28T00:00:00", "Editor": "cat656_Harvard_CGA", "Point_Numb": 155, "Point_Name": "Complejo Deportivo Jose Maria Arguedas", "District": "Carabayllo", "Zona_ID": 1024.0, "Punto_ID": 1155.0 }, "geometry": { "type": "Point", "coordinates": [ -77.012910728459985, -11.87521819058948 ] } },
{ "type": "Feature", "properties": { "OBJECTID": 151, "GlobalID": "1d931663-8283-4171-afad-b38d95875b1b", "CreationDa": "2019-11-28T00:00:00", "Creator": "cat656_Harvard_CGA", "EditDate": "2019-11-28T00:00:00", "Editor": "cat656_Harvard_CGA", "Point_Numb": 138, "Point_Name": "Mercado Virgen de las Mercedes", "District": "Carabayllo", "Zona_ID": 1044.0, "Punto_ID": 1138.0 }, "geometry": { "type": "Point", "coordinates": [ -77.024288046941891, -11.886871812529133 ] } },
{ "type": "Feature", "properties": { "OBJECTID": 152, "GlobalID": "2d03d4de-64e3-4ff0-bbb7-b3c130e7839d", "CreationDa": "2019-11-28T00:00:00", "Creator": "cat656_Harvard_CGA", "EditDate": "2019-11-28T00:00:00", "Editor": "cat656_Harvard_CGA", "Point_Numb": 142, "Point_Name": "Loza Deportiva 3era Etapa Santo Domingo", "District": "Carabayllo", "Zona_ID": 1041.0, "Punto_ID": 1142.0 }, "geometry": { "type": "Point", "coordinates": [ -77.033139999937518, -11.880668190153679 ] } },
{ "type": "Feature", "properties": { "OBJECTID": 153, "GlobalID": "d3c1b109-bef6-4aa6-ac8b-d0562b9637ab", "CreationDa": "2019-11-28T00:00:00", "Creator": "cat656_Harvard_CGA", "EditDate": "2019-11-28T00:00:00", "Editor": "cat656_Harvard_CGA", "Point_Numb": 148, "Point_Name": "CS Raul Porras", "District": "Carabayllo", "Zona_ID": 1049.0, "Punto_ID": 1148.0 }, "geometry": { "type": "Point", "coordinates": [ -77.024593146253423, -11.893313529537501 ] } },
{ "type": "Feature", "properties": { "OBJECTID": 154, "GlobalID": "6729b1a8-81dd-49ec-b911-5535c1031136", "CreationDa": "2019-11-28T00:00:00", "Creator": "cat656_Harvard_CGA", "EditDate": "2019-11-28T00:00:00", "Editor": "cat656_Harvard_CGA", "Point_Numb": 145, "Point_Name": "Cementerio Los Angeles", "District": "Carabayllo", "Zona_ID": 1055.0, "Punto_ID": 1145.0 }, "geometry": { "type": "Point", "coordinates": [ -77.018914635729388, -11.894796065217584 ] } },
{ "type": "Feature", "properties": { "OBJECTID": 155, "GlobalID": "c235d94b-5e48-4d64-8d6e-01abad4afb45", "CreationDa": "2019-11-28T00:00:00", "Creator": "cat656_Harvard_CGA", "EditDate": "2019-11-28T00:00:00", "Editor": "cat656_Harvard_CGA", "Point_Numb": 144, "Point_Name": "Parque La Niñez", "District": "Carabayllo", "Zona_ID": 1053.0, "Punto_ID": 1144.0 }, "geometry": { "type": "Point", "coordinates": [ -77.01983731512064, -11.893260660201539 ] } },
{ "type": "Feature", "properties": { "OBJECTID": 156, "GlobalID": "85b7edc6-de05-4f2a-8353-d3d47d4cab2f", "CreationDa": "2019-11-28T00:00:00", "Creator": "cat656_Harvard_CGA", "EditDate": "2019-11-28T00:00:00", "Editor": "cat656_Harvard_CGA", "Point_Numb": 146, "Point_Name": "Cancha Maracana", "District": "Carabayllo", "Zona_ID": 1053.0, "Punto_ID": 1146.0 }, "geometry": { "type": "Point", "coordinates": [ -77.021138187043135, -11.891426037335565 ] } },
{ "type": "Feature", "properties": { "OBJECTID": 157, "GlobalID": "0d251660-5116-43bd-a3bf-88fd0c97a097", "CreationDa": "2019-11-28T00:00:00", "Creator": "cat656_Harvard_CGA", "EditDate": "2019-11-28T00:00:00", "Editor": "cat656_Harvard_CGA", "Point_Numb": 153, "Point_Name": "PS Punchauca", "District": "Carabayllo", "Zona_ID": 1056.0, "Punto_ID": 1153.0 }, "geometry": { "type": "Point", "coordinates": [ -77.000274375293287, -11.83419284879805 ] } },
{ "type": "Feature", "properties": { "OBJECTID": 158, "GlobalID": "600da78f-ab75-467a-a154-34f03ed5f6d7", "CreationDa": "2019-11-28T00:00:00", "Creator": "cat656_Harvard_CGA", "EditDate": "2019-11-28T00:00:00", "Editor": "cat656_Harvard_CGA", "Point_Numb": 139, "Point_Name": "Centro Comunal El Progreso (Colegio 2025)", "District": "Carabayllo", "Zona_ID": 1067.0, "Punto_ID": 1139.0 }, "geometry": { "type": "Point", "coordinates": [ -77.00817688988198, -11.877763095665342 ] } },
{ "type": "Feature", "properties": { "OBJECTID": 159, "GlobalID": "0bdb9e37-7a2b-45a9-ad60-e7347074e391", "CreationDa": "2019-11-28T00:00:00", "Creator": "cat656_Harvard_CGA", "EditDate": "2019-11-28T00:00:00", "Editor": "cat656_Harvard_CGA", "Point_Numb": 154, "Point_Name": "PS Chocas", "District": "Carabayllo", "Zona_ID": 1082.0, "Punto_ID": 1154.0 }, "geometry": { "type": "Point", "coordinates": [ -76.977223906936729, -11.765830811289113 ] } },
{ "type": "Feature", "properties": { "OBJECTID": 160, "GlobalID": "7e651d02-5e21-458c-9bd3-13a2e5d52394", "CreationDa": "2019-11-28T00:00:00", "Creator": "cat656_Harvard_CGA", "EditDate": "2019-11-28T00:00:00", "Editor": "cat656_Harvard_CGA", "Point_Numb": 91, "Point_Name": "C.S. San Carlos", "District": "Comas", "Zona_ID": 2008.0, "Punto_ID": 2091.0 }, "geometry": { "type": "Point", "coordinates": [ -77.041264635556644, -11.908441313719624 ] } },
{ "type": "Feature", "properties": { "OBJECTID": 161, "GlobalID": "76fc792b-46e8-43d9-a542-b48ad99e888b", "CreationDa": "2019-11-28T00:00:00", "Creator": "cat656_Harvard_CGA", "EditDate": "2019-11-28T00:00:00", "Editor": "cat656_Harvard_CGA", "Point_Numb": 84, "Point_Name": "C.S. El Alamo", "District": "Comas", "Zona_ID": 2007.0, "Punto_ID": 2084.0 }, "geometry": { "type": "Point", "coordinates": [ -77.065804635520109, -11.934826065148618 ] } },
{ "type": "Feature", "properties": { "OBJECTID": 162, "GlobalID": "68f1f5bc-ad57-4d00-bf52-5cc2fb762af5", "CreationDa": "2019-11-28T00:00:00", "Creator": "cat656_Harvard_CGA", "EditDate": "2019-11-28T00:00:00", "Editor": "cat656_Harvard_CGA", "Point_Numb": 86, "Point_Name": "P.S. Primavera", "District": "Comas", "Zona_ID": 2010.0, "Punto_ID": 2086.0 }, "geometry": { "type": "Point", "coordinates": [ -77.056247318176858, -11.923251313849873 ] } },
{ "type": "Feature", "properties": { "OBJECTID": 163, "GlobalID": "194ebf03-f3f5-4ecd-92b0-f31199ac35e4", "CreationDa": "2019-11-28T00:00:00", "Creator": "cat656_Harvard_CGA", "EditDate": "2019-11-28T00:00:00", "Editor": "cat656_Harvard_CGA", "Point_Numb": 108, "Point_Name": "Parque Manhatan", "District": "Comas", "Zona_ID": 2008.0, "Punto_ID": 2108.0 }, "geometry": { "type": "Point", "coordinates": [ -77.039871953117157, -11.901788191689697 ] } },
{ "type": "Feature", "properties": { "OBJECTID": 164, "GlobalID": "894ed070-e1eb-4915-b451-2f1ba8b8af1f", "CreationDa": "2019-11-28T00:00:00", "Creator": "cat656_Harvard_CGA", "EditDate": "2019-11-29T00:00:00", "Editor": "cat656_Harvard_CGA", "Point_Numb": 106, "Point_Name": "Parque los Bomberos", "District": "Comas", "Zona_ID": 2006.0, "Punto_ID": 2106.0 }, "geometry": { "type": "Point", "coordinates": [ -77.062354140038465, -11.943113938090802 ] } },
{ "type": "Feature", "properties": { "OBJECTID": 165, "GlobalID": "f7c4eb23-695f-41c3-b652-5e5c3a7a878e", "CreationDa": "2019-11-28T00:00:00", "Creator": "cat656_Harvard_CGA", "EditDate": "2019-11-28T00:00:00", "Editor": "cat656_Harvard_CGA", "Point_Numb": 77, "Point_Name": "Colegio Israel", "District": "Comas", "Zona_ID": 2003.0, "Punto_ID": 2077.0 }, "geometry": { "type": "Point", "coordinates": [ -77.051081224657196, -11.952996065820825 ] } },
{ "type": "Feature", "properties": { "OBJECTID": 166, "GlobalID": "f72da2e8-32b7-4faf-ae16-c5f9291e1ced", "CreationDa": "2019-11-28T00:00:00", "Creator": "cat656_Harvard_CGA", "EditDate": "2019-11-28T00:00:00", "Editor": "cat656_Harvard_CGA", "Point_Numb": 71, "Point_Name": "Local AFEDEPROM", "District": "Comas", "Zona_ID": 2003.0, "Punto_ID": 2071.0 }, "geometry": { "type": "Point", "coordinates": [ -77.046963445311164, -11.956571471020222 ] } },
{ "type": "Feature", "properties": { "OBJECTID": 167, "GlobalID": "7b18eba7-56ed-4a72-9aa9-ce4bda400f83", "CreationDa": "2019-11-28T00:00:00", "Creator": "cat656_Harvard_CGA", "EditDate": "2019-11-29T00:00:00", "Editor": "cat656_Harvard_CGA", "Point_Numb": 105, "Point_Name": "Parqueo Las Musas/Urb. San Felipe", "District": "Comas", "Zona_ID": 2008.0, "Punto_ID": 2105.0 }, "geometry": { "type": "Point", "coordinates": [ -77.040675131422802, -11.901390815758484 ] } },
{ "type": "Feature", "properties": { "OBJECTID": 168, "GlobalID": "85ecc04c-3f19-450a-86b3-eefaa2faa245", "CreationDa": "2019-11-28T00:00:00", "Creator": "cat656_Harvard_CGA", "EditDate": "2019-11-28T00:00:00", "Editor": "cat656_Harvard_CGA", "Point_Numb": 92, "Point_Name": "Local Adeprosan", "District": "Comas", "Zona_ID": 2004.0, "Punto_ID": 2092.0 }, "geometry": { "type": "Point", "coordinates": [ -77.040154635869087, -11.927103938696533 ] } },
{ "type": "Feature", "properties": { "OBJECTID": 169, "GlobalID": "5f272486-3cab-442a-a674-2a2d01985200", "CreationDa": "2019-11-28T00:00:00", "Creator": "cat656_Harvard_CGA", "EditDate": "2019-11-28T00:00:00", "Editor": "cat656_Harvard_CGA", "Point_Numb": 90, "Point_Name": "C.S. Sangarara", "District": "Comas", "Zona_ID": 2004.0, "Punto_ID": 2090.0 }, "geometry": { "type": "Point", "coordinates": [ -77.043785859809475, -11.918770002024644 ] } },
{ "type": "Feature", "properties": { "OBJECTID": 170, "GlobalID": "e5567e0e-fc84-458b-b295-43d4228dedb3", "CreationDa": "2019-11-28T00:00:00", "Creator": "cat656_Harvard_CGA", "EditDate": "2019-11-28T00:00:00", "Editor": "cat656_Harvard_CGA", "Point_Numb": 89, "Point_Name": "C.S. Santa Luzmilla II", "District": "Comas", "Zona_ID": 2006.0, "Punto_ID": 2089.0 }, "geometry": { "type": "Point", "coordinates": [ -77.058299271508403, -11.947373938360435 ] } },
{ "type": "Feature", "properties": { "OBJECTID": 171, "GlobalID": "13ca2e1b-f416-4b22-bdac-d03b31b2ca84", "CreationDa": "2019-11-28T00:00:00", "Creator": "cat656_Harvard_CGA", "EditDate": "2019-11-28T00:00:00", "Editor": "cat656_Harvard_CGA", "Point_Numb": 104, "Point_Name": "Mercado Huaquillay", "District": "Comas", "Zona_ID": 2011.0, "Punto_ID": 2104.0 }, "geometry": { "type": "Point", "coordinates": [ -77.053500495515152, -11.955942946057037 ] } },
{ "type": "Feature", "properties": { "OBJECTID": 172, "GlobalID": "f9558716-bd44-479a-bbfd-dbd3fdab6d4e", "CreationDa": "2019-11-29T00:00:00", "Creator": "cat656_Harvard_CGA", "EditDate": "2019-11-29T00:00:00", "Editor": "cat656_Harvard_CGA", "Point_Numb": 36, "Point_Name": "Feria Comisaria Collique IV Zona", "District": "Comas", "Zona_ID": 2012.0, "Punto_ID": 2036.0 }, "geometry": { "type": "Point", "coordinates": [ -77.009108659325591, -11.915863440623792 ] } },
{ "type": "Feature", "properties": { "OBJECTID": 173, "GlobalID": "ec430a12-24ec-4b3e-a6fb-f5e4df378590", "CreationDa": "2019-11-29T00:00:00", "Creator": "cat656_Harvard_CGA", "EditDate": "2019-11-29T00:00:00", "Editor": "cat656_Harvard_CGA", "Point_Numb": 81, "Point_Name": "Colegio Santa Rosa", "District": "Comas", "Zona_ID": 2013.0, "Punto_ID": 2081.0 }, "geometry": { "type": "Point", "coordinates": [ -77.04855597685021, -11.949296065448065 ] } },
{ "type": "Feature", "properties": { "OBJECTID": 174, "GlobalID": "c18b83ae-c0ff-4005-ac1e-03fd4b3a1ecb", "CreationDa": "2019-11-29T00:00:00", "Creator": "cat656_Harvard_CGA", "EditDate": "2019-11-29T00:00:00", "Editor": "cat656_Harvard_CGA", "Point_Numb": 103, "Point_Name": "Empresa Esticosa", "District": "Comas", "Zona_ID": 2012.0, "Punto_ID": 2103.0 }, "geometry": { "type": "Point", "coordinates": [ -77.007135976927984, -11.911920816613629 ] } },
{ "type": "Feature", "properties": { "OBJECTID": 175, "GlobalID": "24e93d0c-a6bd-4ed3-93a2-08347c63cc6a", "CreationDa": "2019-11-29T00:00:00", "Creator": "cat656_Harvard_CGA", "EditDate": "2019-11-29T00:00:00", "Editor": "cat656_Harvard_CGA", "Point_Numb": 102, "Point_Name": "Parque Virgen del Carmen", "District": "Comas", "Zona_ID": 2009.0, "Punto_ID": 2102.0 }, "geometry": { "type": "Point", "coordinates": [ -77.053616705173567, -11.918151811986286 ] } },
{ "type": "Feature", "properties": { "OBJECTID": 176, "GlobalID": "938f98cb-adef-43bd-8c87-c3bd8a176ef9", "CreationDa": "2019-11-29T00:00:00", "Creator": "cat656_Harvard_CGA", "EditDate": "2019-11-29T00:00:00", "Editor": "cat656_Harvard_CGA", "Point_Numb": 110, "Point_Name": "Parque Miguel Grau", "District": "Comas", "Zona_ID": 2011.0, "Punto_ID": 2110.0 }, "geometry": { "type": "Point", "coordinates": [ -77.050994635148641, -11.946148689757662 ] } },
{ "type": "Feature", "properties": { "OBJECTID": 177, "GlobalID": "0f1c7064-c7ad-444a-b5a2-fdd2f5b30ea5", "CreationDa": "2019-11-29T00:00:00", "Creator": "cat656_Harvard_CGA", "EditDate": "2019-11-29T00:00:00", "Editor": "cat656_Harvard_CGA", "Point_Numb": 111, "Point_Name": "CS Los Geranios", "District": "Comas", "Zona_ID": 2008.0, "Punto_ID": 2111.0 }, "geometry": { "type": "Point", "coordinates": [ -77.043435248252379, -11.896060317600639 ] } },
{ "type": "Feature", "properties": { "OBJECTID": 178, "GlobalID": "397203c6-6447-4ed5-b108-0a4a9ca9c2a4", "CreationDa": "2020-02-01T00:00:00", "Creator": "cat656_Harvard_CGA", "EditDate": "2020-02-01T00:00:00", "Editor": "cat656_Harvard_CGA", "Point_Numb": 161, "Point_Name": "Empresa de Transporte: EMPTONSA", "District": "Carabayllo", "Zona_ID": 1056.0, "Punto_ID": 1161.0 }, "geometry": { "type": "Point", "coordinates": [ -76.999752799066286, -11.834526875487761 ] } },
{ "type": "Feature", "properties": { "OBJECTID": 179, "GlobalID": "93702619-3737-4015-b95c-0eea444f442a", "CreationDa": "2020-02-01T00:00:00", "Creator": "cat656_Harvard_CGA", "EditDate": "2020-02-01T00:00:00", "Editor": "cat656_Harvard_CGA", "Point_Numb": 159, "Point_Name": "Mercado Torreblanca", "District": "Carabayllo", "Zona_ID": 1057.0, "Punto_ID": 1159.0 }, "geometry": { "type": "Point", "coordinates": [ -77.002622566056075, -11.851109501297131 ] } },
{ "type": "Feature", "properties": { "OBJECTID": 180, "GlobalID": "79ad4645-d466-4545-aecd-9a6926f2e0e9", "CreationDa": "2020-02-01T00:00:00", "Creator": "cat656_Harvard_CGA", "EditDate": "2020-02-01T00:00:00", "Editor": "cat656_Harvard_CGA", "Point_Numb": 164, "Point_Name": "Terminal Nueva America", "District": "Carabayllo", "Zona_ID": 1057.0, "Punto_ID": 1164.0 }, "geometry": { "type": "Point", "coordinates": [ -77.003395041741953, -11.850062110335966 ] } },
{ "type": "Feature", "properties": { "OBJECTID": 181, "GlobalID": "0e5cf2ce-2ac2-41a8-bcd5-581976df5ae2", "CreationDa": "2020-02-01T00:00:00", "Creator": "cat656_Harvard_CGA", "EditDate": "2020-02-01T00:00:00", "Editor": "cat656_Harvard_CGA", "Point_Numb": 167, "Point_Name": "Parque de la Asociación Parques del Rey", "District": "Carabayllo", "Zona_ID": 1057.0, "Punto_ID": 1167.0 }, "geometry": { "type": "Point", "coordinates": [ -77.004875976471567, -11.853962626990027 ] } },
{ "type": "Feature", "properties": { "OBJECTID": 182, "GlobalID": "35a6a4a0-f300-46d6-beb6-a248f29496f4", "CreationDa": "2020-02-01T00:00:00", "Creator": "cat656_Harvard_CGA", "EditDate": "2020-02-01T00:00:00", "Editor": "cat656_Harvard_CGA", "Point_Numb": 165, "Point_Name": "Parque 11 de Noviembre", "District": "Carabayllo", "Zona_ID": 1059.0, "Punto_ID": 1165.0 }, "geometry": { "type": "Point", "coordinates": [ -76.995880611932392, -11.847622126465406 ] } },
{ "type": "Feature", "properties": { "OBJECTID": 183, "GlobalID": "597b2524-5dbf-4aa9-9cd9-30b54f88695a", "CreationDa": "2020-02-01T00:00:00", "Creator": "cat656_Harvard_CGA", "EditDate": "2020-02-01T00:00:00", "Editor": "cat656_Harvard_CGA", "Point_Numb": 166, "Point_Name": "Local Comunal Lomas de Torreblanca Alta", "District": "Carabayllo", "Zona_ID": 1059.0, "Punto_ID": 1166.0 }, "geometry": { "type": "Point", "coordinates": [ -76.995509387632808, -11.842949501334253 ] } },
{ "type": "Feature", "properties": { "OBJECTID": 184, "GlobalID": "e10fc047-cd71-403c-b1ac-5b7782df0503", "CreationDa": "2020-02-01T00:00:00", "Creator": "cat656_Harvard_CGA", "EditDate": "2020-02-01T00:00:00", "Editor": "cat656_Harvard_CGA", "Point_Numb": 168, "Point_Name": "Terminal de Transportes Huandoy", "District": "Carabayllo", "Zona_ID": 1057.0, "Punto_ID": 1168.0 }, "geometry": { "type": "Point", "coordinates": [ -77.001857929967713, -11.845856375927584 ] } },
{ "type": "Feature", "properties": { "OBJECTID": 185, "GlobalID": "b29bd860-65b4-4dea-b24e-29980b88aa09", "CreationDa": "2020-02-01T00:00:00", "Creator": "cat656_Harvard_CGA", "EditDate": "2020-02-01T00:00:00", "Editor": "cat656_Harvard_CGA", "Point_Numb": 169, "Point_Name": "Parroquia Nuestra Señora de Guadalupe", "District": "Carabayllo", "Zona_ID": 1057.0, "Punto_ID": 1169.0 }, "geometry": { "type": "Point", "coordinates": [ -77.00175868858669, -11.847082996944179 ] } },
{ "type": "Feature", "properties": { "OBJECTID": 186, "GlobalID": "8e4a4f1d-d76f-4bdc-b431-3539d312b35f", "CreationDa": "2020-02-01T00:00:00", "Creator": "cat656_Harvard_CGA", "EditDate": "2020-02-01T00:00:00", "Editor": "cat656_Harvard_CGA", "Point_Numb": 162, "Point_Name": "IEP Rayito de Sol", "District": "Carabayllo", "Zona_ID": 1014.0, "Punto_ID": 1162.0 }, "geometry": { "type": "Point", "coordinates": [ -77.030495247451668, -11.904502127850691 ] } },
{ "type": "Feature", "properties": { "OBJECTID": 187, "GlobalID": "0b97e5fd-6896-46e6-85f5-c9e31e394d9e", "CreationDa": "2020-02-01T00:00:00", "Creator": "cat656_Harvard_CGA", "EditDate": "2020-02-01T00:00:00", "Editor": "cat656_Harvard_CGA", "Point_Numb": 151, "Point_Name": "PS Majestad Hiroito", "District": "Carabayllo", "Zona_ID": 1076.0, "Punto_ID": 1151.0 }, "geometry": { "type": "Point", "coordinates": [ -77.003655247747147, -11.8810342530809 ] } },
{ "type": "Feature", "properties": { "OBJECTID": 188, "GlobalID": "04c65a0d-5714-4c7c-9d53-619c4e24cc38", "CreationDa": "2020-02-01T00:00:00", "Creator": "cat656_Harvard_CGA", "EditDate": "2020-02-01T00:00:00", "Editor": "cat656_Harvard_CGA", "Point_Numb": 171, "Point_Name": "Mercado Sol Naciente", "District": "Carabayllo", "Zona_ID": 1073.0, "Punto_ID": 1171.0 }, "geometry": { "type": "Point", "coordinates": [ -76.998907737708834, -11.880724532511236 ] } },
{ "type": "Feature", "properties": { "OBJECTID": 189, "GlobalID": "fd1c7343-66a9-4afd-802c-440ad2411b6d", "CreationDa": "2020-02-01T00:00:00", "Creator": "cat656_Harvard_CGA", "EditDate": "2020-02-01T00:00:00", "Editor": "cat656_Harvard_CGA", "Point_Numb": 75, "Point_Name": "Alameda Fray Martin", "District": "Carabayllo", "Zona_ID": 1078.0, "Punto_ID": 1075.0 }, "geometry": { "type": "Point", "coordinates": [ -76.985599983698791, -11.80278862772278 ] } },
{ "type": "Feature", "properties": { "OBJECTID": 190, "GlobalID": "db3387b4-3941-4119-bbfd-75e964515e22", "CreationDa": "2020-02-01T00:00:00", "Creator": "cat656_Harvard_CGA", "EditDate": "2020-02-01T00:00:00", "Editor": "cat656_Harvard_CGA", "Point_Numb": 156, "Point_Name": "AAHH Heroes de la Guerra del Pacífico", "District": "Carabayllo", "Zona_ID": 1022.0, "Punto_ID": 1156.0 }, "geometry": { "type": "Point", "coordinates": [ -77.020010845379005, -11.872773625686614 ] } },
{ "type": "Feature", "properties": { "OBJECTID": 191, "GlobalID": "e5010611-54fe-4b51-b561-f36678083f19", "CreationDa": "2020-02-01T00:00:00", "Creator": "cat656_Harvard_CGA", "EditDate": "2020-02-01T00:00:00", "Editor": "cat656_Harvard_CGA", "Point_Numb": 1, "Point_Name": "C.S. Ermitaño Bajo", "District": "Independenica", "Zona_ID": 4003.0, "Punto_ID": 3001.0 }, "geometry": { "type": "Point", "coordinates": [ -77.054565247960184, -11.997616389532372 ] } },
{ "type": "Feature", "properties": { "OBJECTID": 192, "GlobalID": "fd982e75-c6ab-43a6-8e19-734f5ae965f1", "CreationDa": "2020-02-01T00:00:00", "Creator": "cat656_Harvard_CGA", "EditDate": "2020-02-01T00:00:00", "Editor": "cat656_Harvard_CGA", "Point_Numb": 2, "Point_Name": "Parque Primero de Mayo", "District": "Independencia", "Zona_ID": 4003.0, "Punto_ID": 3002.0 }, "geometry": { "type": "Point", "coordinates": [ -77.050447930348199, -11.991946883313203 ] } },
{ "type": "Feature", "properties": { "OBJECTID": 193, "GlobalID": "3bcf2050-04e5-4ce6-8809-05b5572bac44", "CreationDa": "2020-02-01T00:00:00", "Creator": "cat656_Harvard_CGA", "EditDate": "2020-02-01T00:00:00", "Editor": "cat656_Harvard_CGA", "Point_Numb": 3, "Point_Name": "I.E. San Martin de Porres", "District": "Independencia", "Zona_ID": 4003.0, "Punto_ID": 3003.0 }, "geometry": { "type": "Point", "coordinates": [ -77.052175272960241, -11.990894788060871 ] } },
{ "type": "Feature", "properties": { "OBJECTID": 194, "GlobalID": "2799183f-140c-44c7-b89b-efbab60d5d8d", "CreationDa": "2020-02-01T00:00:00", "Creator": "cat656_Harvard_CGA", "EditDate": "2020-02-01T00:00:00", "Editor": "cat656_Harvard_CGA", "Point_Numb": 5, "Point_Name": "I.E. Independencia", "District": "Independencia", "Zona_ID": 4003.0, "Punto_ID": 3005.0 }, "geometry": { "type": "Point", "coordinates": [ -77.052548658606412, -11.997634754209372 ] } },
{ "type": "Feature", "properties": { "OBJECTID": 195, "GlobalID": "e9c37db2-093b-4743-8a73-50ff079c8916", "CreationDa": "2020-02-01T00:00:00", "Creator": "cat656_Harvard_CGA", "EditDate": "2020-02-01T00:00:00", "Editor": "cat656_Harvard_CGA", "Point_Numb": 6, "Point_Name": "Estadio el Ermitaño", "District": "Independencia", "Zona_ID": 4003.0, "Punto_ID": 3006.0 }, "geometry": { "type": "Point", "coordinates": [ -77.05373151346015, -11.996973601324708 ] } },
{ "type": "Feature", "properties": { "OBJECTID": 196, "GlobalID": "ec19dceb-78fe-44df-afbf-520db9474d81", "CreationDa": "2020-02-01T00:00:00", "Creator": "cat656_Harvard_CGA", "EditDate": "2020-02-01T00:00:00", "Editor": "cat656_Harvard_CGA", "Point_Numb": 9, "Point_Name": "Mercado la Paradita", "District": "Independencia", "Zona_ID": 4003.0, "Punto_ID": 3009.0 }, "geometry": { "type": "Point", "coordinates": [ -77.053264809025634, -11.996338683830073 ] } },
{ "type": "Feature", "properties": { "OBJECTID": 197, "GlobalID": "5c78d8ef-77c0-45bc-81bc-23740b8622e9", "CreationDa": "2020-02-01T00:00:00", "Creator": "cat656_Harvard_CGA", "EditDate": "2020-02-01T00:00:00", "Editor": "cat656_Harvard_CGA", "Point_Numb": 10, "Point_Name": "Colegio Aurelio Baldor", "District": "Independencia", "Zona_ID": 4003.0, "Punto_ID": 3010.0 }, "geometry": { "type": "Point", "coordinates": [ -77.052317989207751, -11.999424057352694 ] } },
{ "type": "Feature", "properties": { "OBJECTID": 198, "GlobalID": "bb3ff416-ac0a-44b2-ba9f-e6ae2a641dc1", "CreationDa": "2020-02-01T00:00:00", "Creator": "cat656_Harvard_CGA", "EditDate": "2020-02-01T00:00:00", "Editor": "cat656_Harvard_CGA", "Point_Numb": 11, "Point_Name": "Loza #1 de 6 de julio", "District": "Independencia", "Zona_ID": 4003.0, "Punto_ID": 3011.0 }, "geometry": { "type": "Point", "coordinates": [ -77.050388967627896, -11.997121959235923 ] } },
{ "type": "Feature", "properties": { "OBJECTID": 199, "GlobalID": "8dd18d72-5f9c-4ad8-a6c0-07f39263237a", "CreationDa": "2020-02-01T00:00:00", "Creator": "cat656_Harvard_CGA", "EditDate": "2020-02-01T00:00:00", "Editor": "cat656_Harvard_CGA", "Point_Numb": 27, "Point_Name": "Complejo Policial Divter Norte 2", "District": "Independencia", "Zona_ID": 4003.0, "Punto_ID": 3027.0 }, "geometry": { "type": "Point", "coordinates": [ -77.054809761295672, -11.996252104055872 ] } },
{ "type": "Feature", "properties": { "OBJECTID": 200, "GlobalID": "94e98cbf-c990-4ee6-aca3-f787378a8579", "CreationDa": "2020-02-01T00:00:00", "Creator": "cat656_Harvard_CGA", "EditDate": "2020-02-01T00:00:00", "Editor": "cat656_Harvard_CGA", "Point_Numb": 13, "Point_Name": "Mercado Virgen del Carmen", "District": "Independencia", "Zona_ID": 4004.0, "Punto_ID": 3013.0 }, "geometry": { "type": "Point", "coordinates": [ -77.047080612573652, -11.999354754435821 ] } },
{ "type": "Feature", "properties": { "OBJECTID": 201, "GlobalID": "2e34128c-74d0-4d00-8f87-83fe57b54ae9", "CreationDa": "2020-02-01T00:00:00", "Creator": "cat656_Harvard_CGA", "EditDate": "2020-02-01T00:00:00", "Editor": "cat656_Harvard_CGA", "Point_Numb": 14, "Point_Name": "C.S. Ermitaño Alto", "District": "Independencia", "Zona_ID": 4004.0, "Punto_ID": 3014.0 }, "geometry": { "type": "Point", "coordinates": [ -77.043722486361119, -11.999656469036964 ] } },
{ "type": "Feature", "properties": { "OBJECTID": 202, "GlobalID": "acb361f9-da84-4bb0-92b6-eb805bd2c55e", "CreationDa": "2020-02-01T00:00:00", "Creator": "cat656_Harvard_CGA", "EditDate": "2020-02-01T00:00:00", "Editor": "cat656_Harvard_CGA", "Point_Numb": 25, "Point_Name": "Estadio de la Amistad Perú Japon", "District": "Independencia", "Zona_ID": 4001.0, "Punto_ID": 3025.0 }, "geometry": { "type": "Point", "coordinates": [ -77.050617930227517, -11.978370001466004 ] } },
{ "type": "Feature", "properties": { "OBJECTID": 203, "GlobalID": "ad56904b-eac5-4b28-8b45-158cace2c171", "CreationDa": "2020-02-01T00:00:00", "Creator": "cat656_Harvard_CGA", "EditDate": "2020-02-01T00:00:00", "Editor": "cat656_Harvard_CGA", "Point_Numb": 18, "Point_Name": "Loza Andrés Avelino Caceres", "District": "Independencia", "Zona_ID": 4005.0, "Punto_ID": 3018.0 }, "geometry": { "type": "Point", "coordinates": [ -77.051675976748925, -12.007922625305657 ] } },
{ "type": "Feature", "properties": { "OBJECTID": 204, "GlobalID": "2ea3dc95-f984-46fe-99ec-8be18ca25eaf", "CreationDa": "2020-02-01T00:00:00", "Creator": "cat656_Harvard_CGA", "EditDate": "2020-02-01T00:00:00", "Editor": "cat656_Harvard_CGA", "Point_Numb": 24, "Point_Name": "Loza Deportiva El Volante", "District": "Independencia", "Zona_ID": 4005.0, "Punto_ID": 3024.0 }, "geometry": { "type": "Point", "coordinates": [ -77.048932077205151, -12.005674259949288 ] } },
{ "type": "Feature", "properties": { "OBJECTID": 205, "GlobalID": "62a05875-034d-4e4a-b557-42622227de64", "CreationDa": "2020-02-01T00:00:00", "Creator": "cat656_Harvard_CGA", "EditDate": "2020-02-01T00:00:00", "Editor": "cat656_Harvard_CGA", "Point_Numb": 16, "Point_Name": "C.M.I. Tahuantinsuyo Bajo", "District": "Independencia", "Zona_ID": 4001.0, "Punto_ID": 3016.0 }, "geometry": { "type": "Point", "coordinates": [ -77.052932565321171, -11.97897787366867 ] } },
{ "type": "Feature", "properties": { "OBJECTID": 206, "GlobalID": "30262eea-1b38-4ec6-96a8-345f76ef9072", "CreationDa": "2020-02-01T00:00:00", "Creator": "cat656_Harvard_CGA", "EditDate": "2020-02-01T00:00:00", "Editor": "cat656_Harvard_CGA", "Point_Numb": 20, "Point_Name": "Loza Deportiva los Cachorros", "District": "Independencia", "Zona_ID": 4002.0, "Punto_ID": 3020.0 }, "geometry": { "type": "Point", "coordinates": [ -77.038945976908806, -11.978964753879973 ] } },
{ "type": "Feature", "properties": { "OBJECTID": 207, "GlobalID": "24907d8c-2c1b-460b-b899-3d5b06dba517", "CreationDa": "2020-02-01T00:00:00", "Creator": "cat656_Harvard_CGA", "EditDate": "2020-02-01T00:00:00", "Editor": "cat656_Harvard_CGA", "Point_Numb": 21, "Point_Name": "Comisaría Tahuantinsuyo", "District": "Independencia", "Zona_ID": 4001.0, "Punto_ID": 3021.0 }, "geometry": { "type": "Point", "coordinates": [ -77.04922524778803, -11.980502626036687 ] } },
{ "type": "Feature", "properties": { "OBJECTID": 208, "GlobalID": "13ae3a23-3267-42b9-bc5c-32d35c7775ea", "CreationDa": "2020-02-01T00:00:00", "Creator": "cat656_Harvard_CGA", "EditDate": "2020-02-01T00:00:00", "Editor": "cat656_Harvard_CGA", "Point_Numb": 19, "Point_Name": "C.S. Tupac Amaru", "District": "Independencia", "Zona_ID": 4006.0, "Punto_ID": 3019.0 }, "geometry": { "type": "Point", "coordinates": [ -77.045363294261847, -11.972214754260738 ] } },
{ "type": "Feature", "properties": { "OBJECTID": 209, "GlobalID": "940f6093-faf0-4f33-a6ab-94ba7af15128", "CreationDa": "2020-02-01T00:00:00", "Creator": "cat656_Harvard_CGA", "EditDate": "2020-02-01T00:00:00", "Editor": "cat656_Harvard_CGA", "Point_Numb": 26, "Point_Name": "Loza Deportiva Las Americas", "District": "Independencia", "Zona_ID": 4009.0, "Punto_ID": 3026.0 }, "geometry": { "type": "Point", "coordinates": [ -77.053873294561441, -11.987644754630377 ] } },
{ "type": "Feature", "properties": { "OBJECTID": 210, "GlobalID": "ccaea3b8-08ca-4fc3-8764-5ef5714f6482", "CreationDa": "2020-02-01T00:00:00", "Creator": "cat656_Harvard_CGA", "EditDate": "2020-02-01T00:00:00", "Editor": "cat656_Harvard_CGA", "Point_Numb": 22, "Point_Name": "Plaza de Armas de Independencia", "District": "Independencia", "Zona_ID": 4003.0, "Punto_ID": 3022.0 }, "geometry": { "type": "Point", "coordinates": [ -77.054453132822815, -11.996685423544124 ] } },
{ "type": "Feature", "properties": { "OBJECTID": 211, "GlobalID": "ab40fcf4-4e1a-4ef5-92fb-1e26485a6091", "CreationDa": "2020-02-01T00:00:00", "Creator": "cat656_Harvard_CGA", "EditDate": "2020-02-01T00:00:00", "Editor": "cat656_Harvard_CGA", "Point_Numb": 23, "Point_Name": "Loza Leoncio Prado", "District": "Independencia", "Zona_ID": 4002.0, "Punto_ID": 3023.0 }, "geometry": { "type": "Point", "coordinates": [ -77.034892930162158, -11.977440506902223 ] } },
{ "type": "Feature", "properties": { "OBJECTID": 212, "GlobalID": "a1dede55-5c20-4402-9494-7d968f62594b", "CreationDa": "2020-02-21T00:00:00", "Creator": "cat656_Harvard_CGA", "EditDate": "2020-02-21T00:00:00", "Editor": "cat656_Harvard_CGA", "Point_Numb": 175, "Point_Name": "Asociación Vista Verde II", "District": "Carabayllo", "Zona_ID": 1057.0, "Punto_ID": 1175.0 }, "geometry": { "type": "Point", "coordinates": [ -77.007361000415074, -11.849225939481951 ] } },
{ "type": "Feature", "properties": { "OBJECTID": 213, "GlobalID": "4aec75f4-cb9a-4212-a243-b2cef2357426", "CreationDa": "2020-02-21T00:00:00", "Creator": "cat656_Harvard_CGA", "EditDate": "2020-02-21T00:00:00", "Editor": "cat656_Harvard_CGA", "Point_Numb": 174, "Point_Name": "Terminal de Transporte Santa Cruz", "District": "Carabayllo", "Zona_ID": 1057.0, "Punto_ID": 1174.0 }, "geometry": { "type": "Point", "coordinates": [ -77.003629767034113, -11.836634751456844 ] } },
{ "type": "Feature", "properties": { "OBJECTID": 214, "GlobalID": "921aca84-f601-4e71-aea6-55c71ae4a9b7", "CreationDa": "2020-02-21T00:00:00", "Creator": "cat656_Harvard_CGA", "EditDate": "2020-02-21T00:00:00", "Editor": "cat656_Harvard_CGA", "Point_Numb": 176, "Point_Name": "PS Luis Enrique", "District": "Carabayllo", "Zona_ID": 1068.0, "Punto_ID": 1176.0 }, "geometry": { "type": "Point", "coordinates": [ -77.008913906368633, -11.877179502786005 ] } },
{ "type": "Feature", "properties": { "OBJECTID": 215, "GlobalID": "f369d1a3-6968-41a4-b32d-27aee60f14e5", "CreationDa": "2020-02-21T00:00:00", "Creator": "cat656_Harvard_CGA", "EditDate": "2020-02-21T00:00:00", "Editor": "cat656_Harvard_CGA", "Point_Numb": 112, "Point_Name": "Iglesia Evangélica Peruana", "District": "Comas", "Zona_ID": 2005.0, "Punto_ID": 2112.0 }, "geometry": { "type": "Point", "coordinates": [ -77.033872906631757, -11.916309938745835 ] } },
{ "type": "Feature", "properties": { "OBJECTID": 216, "GlobalID": "cce575fc-1c09-4f4b-9c33-4afdc54269c7", "CreationDa": "2020-02-26T00:00:00", "Creator": "cat656_Harvard_CGA", "EditDate": "2020-02-26T00:00:00", "Editor": "cat656_Harvard_CGA", "Point_Numb": 17, "Point_Name": "Loza Deportiva El Angel", "District": "Independencia", "Zona_ID": 0.0, "Punto_ID": 3017.0 }, "geometry": { "type": "Point", "coordinates": [ -77.051120116319098, -12.013169183916034 ] } },
{ "type": "Feature", "properties": { "OBJECTID": 217, "GlobalID": "0adaf068-f6bb-47ca-8529-32889c801fd6", "CreationDa": "2020-02-26T00:00:00", "Creator": "cat656_Harvard_CGA", "EditDate": "2020-02-26T00:00:00", "Editor": "cat656_Harvard_CGA", "Point_Numb": 1, "Point_Name": "Plaza Norte", "District": "Independencia", "Zona_ID": 4012.0, "Punto_ID": 3032.0 }, "geometry": { "type": "Point", "coordinates": [ -77.059167917235314, -12.006558209237987 ] } }
]
}
